,id,address,area_name,price,latitude,longitude,property_type
0,0,"86 Waterford Dr Toronto, ON",Richview,999888,43.679882,-79.54426600000002,House
1,1,"#80 - 100 BEDDOE DR Hamilton, ON",Chedoke Park B,399900,43.25,-79.90439599999998,Condo/Apartment
2,2,"213 Bowman Street Hamilton, ON",Ainslie Wood East,479000,43.25169,-79.91935699999998,House
3,3,"102 NEIL Avenue Hamilton, ON",Greenford,285900,43.227160999999995,-79.767403,House
4,6,"#1409 - 230 King St Toronto, ON",Downtown,362000,43.651478000000004,-79.36811800000002,Condo/Apartment
5,7,"254A Monarch Park Ave Toronto, ON",Old East York,1488000,43.686375,-79.328918,House
6,8,"532 Caledonia Rd Toronto, ON",Fairbank,25,43.691193,-79.461662,House
7,9,"11 REBECCA Street Hamilton, ON",Central Hamilton,254900,43.258540999999994,-79.867615,House
8,10,"617 BRIGADOON Drive Hamilton, ON",Gourley,364900,43.216557,-79.90499100000002,House
9,12,"51 - 255 MOUNT ALBION Road Hamilton, ON",Red Hill,304900,43.215706,-79.794189,House
10,13,"1170 LAMBTON Drive Oakville, ON",Clearview,1289000,43.495579,-79.658272,House
11,19,"47 Armstrong Ave Toronto, ON",Wallace Emerson,113,43.664101,-79.439751,House
12,20,"3 Bracebridge Ave Toronto, ON",Old East York,599900,43.697842,-79.317368,House
13,21,"#808 - 2167 Lake Shore Blvd Toronto, ON",Parkdale,97,43.635578,-79.441345,Condo/Apartment
14,22,"#2706 - 2167 Lake Shore Blvd Toronto, ON",Parkdale,49,43.635578,-79.441345,Condo/Apartment
15,23,"#710 - 1080 Bay St Toronto, ON",Downtown,805900,43.666794,-79.388756,Condo/Apartment
16,24,"#A - 753 Shaw St Toronto, ON",Midtown Toronto,97,43.662872,-79.423233,Condo/Apartment
17,25,"160 Jenkinson Way Toronto, ON",Dorset Park,549900,43.749598999999996,-79.270844,House
18,26,"40 Hawthorne Rd Toronto, ON",Richview,850000,43.692314,-79.552635,House
19,27,"#4905 - 16 Harbour St Toronto, ON",Downtown,1348000,43.642578,-79.3769,Condo/Apartment
20,28,"166 Mcnicoll Ave Toronto, ON",Hillcrest Village,129,43.799479999999996,-79.357445,House
21,29,"430 Military Tr Toronto, ON",Morningside,675000,43.788639,-79.207932,House
22,30,"67 Montressor Dr Toronto, ON",St. Andrew - Windfields,113,43.759003,-79.392075,House
23,31,"46 Bruce Farm Dr Toronto, ON",Bayview Woods - Steeles,49,43.79935800000001,-79.377914,House
24,32,"#1215 - 2627 Mccowan Rd Toronto, ON",Agincourt,49,43.807091,-79.26553299999998,Condo/Apartment
25,33,"247 Westmount Ave Toronto, ON",St. Clair West Village,25,43.68227,-79.44339000000002,House
26,34,"31 Yorkshire Rd Toronto, ON",Ionview,499900,43.740097,-79.273987,House
27,35,"34 Ordway Rd Toronto, ON",Kennedy Park,599000,43.733814,-79.25,House
28,36,"47 Waterbeach Cres Toronto, ON",Rexdale,549900,43.726189,-79.582047,House
29,37,"2 Moraine Hill Dr Toronto, ON",Tam O'Shanter,698000,43.774623999999996,-79.298141,House
30,38,"11 Mid Pines Rd Toronto, ON",Woburn,145,43.769413,-79.21145600000001,House
31,39,"#1002 - 61 Richview Rd Toronto, ON",Humber Heights - Westmount,25,43.68417,-79.516685,Condo/Apartment
32,40,"20 Shrewsbury Sq Toronto, ON",Tam O'Shanter - Sullivan,145,43.772118,-79.309311,House
33,41,"#18 - 170 Wickson Tr Toronto, ON",Malvern,338000,43.805099,-79.21195999999998,Condo/Apartment
34,42,"6 Willesden Rd Toronto, ON",Don Valley Village,699800,43.792187,-79.365669,House
35,43,"#2705 - 70 Temperance St Toronto, ON",Downtown,325000,43.650372,-79.382347,Condo/Apartment
36,44,"37 Chapel Park Sq Toronto, ON",Milliken,25,43.821087,-79.314796,House
37,45,"49 Cadillac Ave Toronto, ON",Wilson Heights,1149000,43.734875,-79.441017,House
38,46,"#711 - 16 Harrison Garden Blvd Toronto, ON",Willowdale,25,43.757698,-79.409042,Condo/Apartment
39,47,"#3711 - 11 Brunel Crt Toronto, ON",Downtown,97,43.6395,-79.393425,Condo/Apartment
40,48,"4 Danube Dr Toronto, ON",Wexford - Maryvale,749900,43.742484999999995,-79.296707,House
41,49,"#1209 - 35 Finch Ave Toronto, ON",Willowdale,419000,43.779987,-79.412735,Condo/Apartment
42,51,"61 Mayland Tr Hamilton, ON",Hamilton,399900,43.19001,-79.774529,House
43,52,"48 Evans St Hamilton, ON",Central Hamilton,329000,43.25713,-79.85566700000003,House
44,53,"397 East 21st St Hamilton, ON",Burkholme,345000,43.228962,-79.857834,House
45,54,"412 Wilson Ave Hamilton, ON",Central Hamilton,115000,43.254719,-79.85163100000003,House
46,56,"312 WEXFORD AVE S Hamilton, ON",Delta East,449900,43.232215999999994,-79.816681,House
47,57,"532 FERGUSON AVE N Hamilton, ON",North End East,229900,43.27071,-79.854385,House
48,58,"52 WILLIAM Street Hamilton, ON",Landsdale,249000,43.260704,-79.845901,House
49,59,"5 WEST - 174 MOUNTAIN PARK Avenue Hamilton, ON",East Hamilton,585000,43.242687,-79.85204300000002,House
50,60,"374 BERKINDALE Drive Hamilton, ON",Riverdale East,399900,43.226192,-79.744423,House
51,61,"15 JOHN Street Hamilton, ON",Central Hamilton,0,43.25642,-79.86644,House
52,63,"50 ARMSTRONG Avenue Hamilton, ON",McQuesten West,239900,43.235504,-79.781685,House
53,64,"259 STRATHEARNE Avenue Hamilton, ON",Homeside,279000,43.244816,-79.797966,House
54,65,"210 1490 Bishops Gate Oakville, ON",Glen Abbey,399900,43.439903,-79.739502,House
55,66,"87 CHISHOLM ST Oakville, ON",Oakville,1249900,43.44122700000001,-79.672119,House
56,67,"6 1267 Dorval Drive Oakville, ON",Oakville,988000,43.449455,-79.711067,House
57,68,"3153 OLD BRONTE RD N Oakville, ON",Oakville,1728888,43.439838,-79.78115799999998,House
58,69,"121 ELTON PARK Road Oakville, ON",Oakville,3358000,43.45615,-79.658463,House
59,70,"144 Kerr Street Oakville, ON",Kerr Village,1125,43.440445000000004,-79.676041,House
60,71,"2491 Hemmford Drive Oakville, ON",West Oak Trails,1150000,43.426398999999996,-79.758904,House
61,72,"104 2338 Taunton Drive Oakville, ON",Uptown Core,438888,43.481838,-79.71537,House
62,73,"447 DRUMMOND Road Oakville, ON",Oakville,1799000,43.471046,-79.662132,House
63,74,"#427 - 2480 PRINCE MICHAEL DR Oakville, ON",Oakville,343500,43.497147,-79.707939,Condo/Apartment
64,75,"493 DUNDAS ST Oakville, ON",Oakville,90000,43.466910999999996,-79.74503299999998,House
65,76,"3169 Trailside Drive Oakville, ON",Oakville,1599900,43.470753,-79.74787099999998,House
66,77,"2482 Felhaber Crescent Oakville, ON",Oakville,899000,43.495059999999995,-79.709579,House
67,93,"9 Struthers St Toronto, ON",Mimico,749000,43.609004999999996,-79.496078,House
68,94,"1574 Pharmacy Ave Toronto, ON",Wexford - Maryvale,649900,43.763866,-79.312263,House
69,95,"26 Waterbury Dr Toronto, ON",Richview,595500,43.687061,-79.571083,House
70,96,"44 Dewlane Dr Toronto, ON",Newtonbrook,145,43.78700300000001,-79.441383,House
71,97,"#3010 - 65 St  Mary St Toronto, ON",Downtown,312000,43.666897,-79.389038,Condo/Apartment
72,98,"1 Silbury Dr Toronto, ON",Agincourt,709900,43.809810999999996,-79.263359,House
73,99,"1465A Birchmount Rd Toronto, ON",Dorset Park,599900,43.755790999999995,-79.28788,House
74,100,"85 Autumn Glen Circ Toronto, ON",Rexdale,25,43.733596999999996,-79.608871,House
75,101,"143 Princess Margaret Blvd Toronto, ON",Princess Margaret,1049000,43.666405,-79.553543,House
76,102,"#9 - 42 Pinery Tr Toronto, ON",Malvern,105,43.807106,-79.227829,Condo/Apartment
77,103,"175 Haddington Ave Toronto, ON",Nortown,2888000,43.73373400000001,-79.425026,House
78,104,"## 911 - 5 Shady Gfwy Toronto, ON",Flemingdon Park,279900,43.71791500000001,-79.326309,Condo/Apartment
79,105,"#1805 - 16 Harrison Garden Blvd Toronto, ON",Willowdale,299900,43.757698,-79.409042,Condo/Apartment
80,106,"68 Kenilworth Ave Toronto, ON",The Beach,1929000,43.668091,-79.301514,House
81,107,"#1505 - 125 Western Battery Rd Toronto, ON",Niagara,399900,43.639946,-79.416664,Condo/Apartment
82,108,"110 Kirker Ave Toronto, ON",Woburn,25,43.759617,-79.206642,House
83,109,"138 Mckee Ave Toronto, ON",Willowdale,3988000,43.774734,-79.40568499999998,House
84,110,"#2403 - 375 King St Toronto, ON",Downtown,548000,43.645641,-79.39295200000002,Condo/Apartment
85,111,"22 Strathearn Blvd Toronto, ON",Midtown Toronto,5288000,43.691134999999996,-79.415573,House
86,112,"5051 Finch Ave Toronto, ON",Bridlewood,145,43.796768,-79.315636,House
87,113,"#406 - 300 Manitoba St Toronto, ON",Mimico,309000,43.62421,-79.489449,Condo/Apartment
88,114,"#1901 - 231 Fort York Blvd Toronto, ON",Niagara,369000,43.636837,-79.406052,Condo/Apartment
89,115,"#1010 - 65 East Liberty St Toronto, ON",Liberty Village,420000,43.638054,-79.41481800000003,Condo/Apartment
90,116,"#3706 - 15 Fort York Blvd Toronto, ON",Downtown,33,43.640057,-79.393967,Condo/Apartment
91,117,"#203 - 17 Kenaston Gdns Toronto, ON",Bayview Village,429000,43.766094,-79.385582,Condo/Apartment
92,118,"#502 - 2 Anndale Dr Toronto, ON",Willowdale,559000,43.760464,-79.410248,Condo/Apartment
93,119,"1060 Midland Ave Toronto, ON",Bendale,699900,43.744205,-79.262428,House
94,120,"#701 - 3 Massey Sq Toronto, ON",Old East York,315000,43.696827,-79.29341099999998,Condo/Apartment
95,121,"#711 - 33 Singer Crt Toronto, ON",Bayview Village,428000,43.769611,-79.368416,Condo/Apartment
96,122,"70 Dundalk Dr Toronto, ON",Dorset Park,113,43.769642,-79.28613299999998,House
97,123,"#1127 - 5 Everson Dr Toronto, ON",Willowdale,348800,43.757408,-79.406853,Condo/Apartment
98,124,"#1501 - 3050 Ellesmere Rd Toronto, ON",Morningside,209900,43.786037,-79.197723,Condo/Apartment
99,125,"112 Helendale Ave Toronto, ON",Midtown Toronto,989000,43.708542,-79.40211500000002,House
100,126,"#2004 - 21 Balmuto St Toronto, ON",Downtown,445900,43.669151,-79.387375,Condo/Apartment
101,127,"#707 - 5 Rowntree Rd Toronto, ON",Rexdale,319901,43.74955,-79.58075,Condo/Apartment
102,128,"255 Seaton St Toronto, ON",Downtown,25,43.660812,-79.370216,House
103,129,"45 Valhalla Blvd Toronto, ON",Birch Cliff,699000,43.688419,-79.267677,House
104,130,"#917 - 103 The Queensway Ave Toronto, ON",Swansea,25,43.636292,-79.470467,Condo/Apartment
105,131,"#512 - 35 Bastion St Toronto, ON",Niagara,105,43.637207000000004,-79.403572,Condo/Apartment
106,132,"102 Mcgillivray Ave Toronto, ON",Nortown,1299900,43.736374,-79.430412,House
107,133,"1 Axsmith Cres Toronto, ON",Don Valley Village,41,43.78788,-79.351738,House
108,134,"#1912 - 62 Forest Manor Rd Toronto, ON",Henry Farm,325000,43.773922,-79.345726,Condo/Apartment
109,135,"14 Rosemount Dr Toronto, ON",Ionview,25,43.732124,-79.275276,House
110,136,"9 Isaac Devins Blvd Toronto, ON",Humberlea,1049000,43.729229,-79.534203,House
111,137,"#2202 - 88 Grangeway Ave Toronto, ON",Woburn,25,43.773827000000004,-79.250023,Condo/Apartment
112,138,"#3601 - 2220 Lakeshore Blvd Toronto, ON",Mimico,320000,43.62273,-79.483192,Condo/Apartment
113,139,"#320 - 18 William Carson Cres Toronto, ON",York Mills,145,43.749531,-79.407188,Condo/Apartment
114,140,"#537 - 665 Kennedy Rd Toronto, ON",Scarborough Junction,179000,43.72599,-79.265015,Condo/Apartment
115,141,"#2112 - 4968 Yonge St Toronto, ON",Lansing,113,43.765152,-79.412277,Condo/Apartment
116,142,"#2709 - 70 Temperance St Toronto, ON",Downtown,459000,43.650372,-79.382347,Condo/Apartment
117,143,"179 Carolbreen Sq Toronto, ON",Milliken,25,43.807594,-79.28289000000002,House
118,144,"#2708 - 5168 Yonge St Toronto, ON",Willowdale,409900,43.769829,-79.413467,Condo/Apartment
119,145,"#1003 - 763 Bay St Toronto, ON",Downtown,105,43.660103,-79.385086,Condo/Apartment
120,146,"#1905 - 17 Anndale Dr Toronto, ON",Willowdale,580000,43.760135999999996,-79.40789000000002,Condo/Apartment
121,147,"#303 - 5229 Dundas St Toronto, ON",Islington - City Centre West,33,43.639355,-79.53694899999998,Condo/Apartment
122,148,"#1509 - 88 Alton Towers Circ Toronto, ON",Toronto,25,43.824669,-79.274445,Condo/Apartment
123,149,"#2002 - 2 Anndale Dr Toronto, ON",Willowdale,605900,43.760464,-79.410248,Condo/Apartment
124,150,"#613 - 4064 Lawrence Ave Toronto, ON",West Hill,25,43.76638,-79.197601,Condo/Apartment
125,151,"#901 - 2756 Old Leslie St Toronto, ON",Bayview Village,105,43.769721999999994,-79.36692,Condo/Apartment
126,152,"1571-73 Bayview Ave Toronto, ON",Leaside,25,43.7057,-79.374969,House
127,153,"#Main Fl - 454 Bloor St Toronto, ON",Midtown Toronto,49,43.66571,-79.40909599999998,Condo/Apartment
128,154,"1571-73 Bayview Ave Toronto, ON",Leaside,97,43.7057,-79.374969,House
129,155,"#2016 - 155 Beecroft Rd Toronto, ON",Willowdale,469900,43.765537,-79.413155,Condo/Apartment
130,156,"#403 - 35 Brian Peck Cres Toronto, ON",Leaside,25,43.714638,-79.35463,Condo/Apartment
131,157,"#1016 - 35 Bales Ave Toronto, ON",Willowdale,515000,43.760181,-79.408218,Condo/Apartment
132,158,"88 Twenty Sixth St Toronto, ON",Long Branch,25,43.600151000000004,-79.52619200000002,House
133,159,"#729 - 39 Queens Quay Way Toronto, ON",Downtown,438800,43.641346,-79.372421,Condo/Apartment
134,160,"22 Norman Wesley Way Toronto, ON",Downsview,579999,43.74322100000001,-79.488487,House
135,161,"25 Parkland Rd Toronto, ON",Birch Cliff,1790000,43.685295,-79.281013,House
136,162,"2 La Rush Dr Toronto, ON",Humber Heights - Westmount,25,43.691578,-79.516853,House
137,163,"30 Exeter St Toronto, ON",Carleton Village,699900,43.673656,-79.455894,House
138,164,"#305 - 9 Burnhamthorpe Cres Toronto, ON",Islington,598000,43.649681,-79.530716,Condo/Apartment
139,165,"#Loft 2 - 2B Minto St Toronto, ON",Leslieville,1369900,43.663742,-79.324966,Condo/Apartment
140,166,"#815 - 39 Queens Quay Way Toronto, ON",Downtown,33,43.641346,-79.372421,Condo/Apartment
141,167,"#716 - 169 Fort York Blvd Toronto, ON",Niagara,25,43.638512,-79.400894,Condo/Apartment
142,168,"#1605 - 61 Markbrook Lane Toronto, ON",Rexdale,254900,43.759262,-79.585342,Condo/Apartment
143,169,"#1 - 105 Heath St Toronto, ON",Midtown Toronto,105,43.689011,-79.400002,Condo/Apartment
144,170,"#514 - 210 Simcoe St Toronto, ON",Downtown,33,43.652451,-79.388931,Condo/Apartment
145,171,"#724 - 2885 Bayview Ave Toronto, ON",Bayview Village,559999,43.767936999999996,-79.387955,Condo/Apartment
146,172,"#402 - 323 Richmond St Toronto, ON",Old Town,337000,43.653217,-79.368378,Condo/Apartment
147,173,"90 Browning Ave Toronto, ON",Riverdale,1599000,43.682064000000004,-79.353073,House
148,174,"#3307 - 21 Widmer St Toronto, ON",Downtown,438000,43.647224,-79.391098,Condo/Apartment
149,175,"#1108 - 55 Bamburgh Circ Toronto, ON",Steeles,329900,43.814667,-79.326698,Condo/Apartment
150,176,"42 Rovinelli Rd Toronto, ON",Malvern,849000,43.815104999999996,-79.217415,House
151,177,"#907 - 5791 Yonge St Toronto, ON",Newtonbrook,389999,43.784409000000004,-79.416061,Condo/Apartment
152,178,"592 The Queensway Toronto, ON",The Queensway,699900,43.628426,-79.49398000000002,House
153,179,"44 Barkwood Cres Toronto, ON",Hillcrest Village,17,43.805328,-79.355812,House
154,180,"#3006 - 121 Mcmahon Dr Toronto, ON",Bayview Village,25,43.767746,-79.370918,Condo/Apartment
155,181,"#2604 - 1 King St Toronto, ON",Weston,319800,43.701572,-79.52018699999998,Condo/Apartment
156,183,"#713 - 15 Greenview Ave Toronto, ON",Newtonbrook,560000,43.78017,-79.418251,Condo/Apartment
157,184,"#1711 - 45 Charles St Toronto, ON",Downtown,448888,43.668777,-79.383995,Condo/Apartment
158,185,"#2011 - 215 Fort York Blvd Toronto, ON",Niagara,399000,43.636345,-79.404808,Condo/Apartment
159,186,"#4004 - 21 Grenville St Toronto, ON",Downtown,704900,43.661792999999996,-79.384506,Condo/Apartment
160,187,"#1310 - 8 Mercer St Toronto, ON",Downtown,389000,43.645984999999996,-79.389938,Condo/Apartment
161,188,"#201 - 3 Pemberton Ave Toronto, ON",Newtonbrook,283000,43.780453,-79.413811,Condo/Apartment
162,189,"#1103 - 3 Marine Parade Dr Toronto, ON",Mimico,579000,43.630383,-79.47627299999998,Condo/Apartment
163,190,"61 Boydwood Lane Toronto, ON",Rouge,3599000,43.806259000000004,-79.158813,House
164,191,"75 Highland Cres Toronto, ON",York Mills,8995000,43.743626,-79.391846,House
165,192,"#816 - 210 Victoria St Toronto, ON",Downtown,329000,43.654648,-79.37925,Condo/Apartment
166,193,"17 Tineta Cres Toronto, ON",White Haven,650000,43.786873,-79.256088,House
167,194,"#612 - 800 Lawrence Ave Toronto, ON",Lawrence Heights,359000,43.714591999999996,-79.452911,Condo/Apartment
168,195,"#5 - 1500 Bathurst St Toronto, ON",Casa Loma,35000,43.684158000000004,-79.419075,Condo/Apartment
169,227,"16 Stanley Avenue Kitchener, ON",Bridgeport East,289500,43.482586,-80.470451,House
170,228,"548 Pinnacle Drive Kitchener, ON",Doon South,749900,43.377377,-80.413368,House
171,229,"198 Newbury Drive Kitchener, ON",Forest Heights,279900,43.423266999999996,-80.549805,House
172,230,"1110 Fairway Road Kitchener, ON",Grand River South,339500,43.44854,-80.402138,House
173,231,"468 Doon South Drive Kitchener, ON",Doon South,294900,43.378914,-80.43208299999998,House
174,232,"202 Silver Aspen Crescent Kitchener, ON",Forest Heights,155000,43.423897,-80.525352,House
175,233,"205 Highland Crescent Kitchener, ON",Victoria Hills,239000,43.433254,-80.523178,House
176,234,"24 Mooregate Crescent Kitchener, ON",Victoria Hills,129900,43.439213,-80.523491,House
177,235,"92 Claycroft Crescent Kitchener, ON",Forest Heights,534888,43.42305800000001,-80.536461,House
178,236,"84 Bagot St Guelph, ON",Onward Willow,319900,43.541809,-80.267944,House
179,237,"326 Cole Rd Guelph, ON",Hanlon Creek,313900,43.508049,-80.234413,House
180,238,"33 Old Colony Tr Guelph, ON",Guelph,564900,43.50978900000001,-80.240356,House
181,239,"47 Edgehill Dr Guelph, ON",Exhibition Park,439900,43.552586,-80.27005799999998,House
182,240,"150 Victoria Rd Guelph, ON",Guelph,1599905,43.563441999999995,-80.240593,House
183,242,"183 ARTHUR ST N Guelph, ON",Waverley,329500,43.550434,-80.251793,House
184,243,"96 Silurian Drive Guelph, ON",Grange Hill East,387900,43.565311,-80.217117,House
185,244,"76 Washburn Drive Guelph, ON",Grange Hill East,339900,43.572025,-80.231163,House
186,245,"110 SIMMONDS Drive Guelph, ON",Waverley,499900,43.580765,-80.265869,House
187,247,"293 Paisley Road Guelph, ON",Onward Willow,339900,43.540306,-80.263855,House
188,248,"68 240 LONDON Road W Guelph, ON",Exhibition Park,329900,43.543354,-80.264183,House
189,249,"65 College Avenue W Guelph, ON",Old University,699000,43.529175,-80.237,House
190,250,"91 Conroy Crescent Guelph, ON",Guelph,129900,43.509037,-80.251648,House
191,251,"33 REID Court Guelph, ON",Hanlon Creek,309900,43.513775,-80.23123199999998,House
192,252,"200 Woolwich Street Guelph, ON",Guelph,239900,43.548297999999996,-80.253639,House
193,253,"41 1/2 Nottingham Street Guelph, ON",Old City,254900,43.54068400000001,-80.24852800000002,House
194,254,"215 Suffolk Street W Guelph, ON",Exhibition Park,359900,43.543663,-80.262383,House
195,255,"40 Silvercreek Parkway Guelph, ON",Onward Willow,216900,43.534996,-80.27362099999998,House
196,256,"31 Schroder Crescent Guelph, ON",Grange Hill East,299900,43.558014,-80.227051,House
197,257,"92 Arthur Street Guelph, ON",Guelph,625000,43.548958,-80.24704,House
198,258,"107 Ferguson Street Guelph, ON",Two Rivers,287500,43.549145,-80.23741899999997,House
199,260,"360 YORK RD Guelph, ON",Two Rivers,474999,43.548512,-80.22879,House
200,261,"113 49 RHONDA Road Guelph, ON",West Willow Woods,214900,43.53569,-80.279762,House
201,262,"66 June Avenue Guelph, ON",Guelph,360000,43.552708,-80.278244,House
202,263,"70 Downey Road Guelph, ON",Kortright Hills,849900,43.502978999999996,-80.238884,House
203,264,"84 Bagot Street Guelph, ON",Onward Willow,319900,43.541809,-80.267944,House
204,265,"33 Old Colony Trail Guelph, ON",Guelph,564900,43.50978900000001,-80.240356,House
205,266,"35 Kron Drive Guelph, ON",Hanlon Creek,489000,43.518448,-80.217987,House
206,267,"89 Davis Street Guelph, ON",Guelph,534900,43.581759999999996,-80.222427,House
207,268,"194 Couling Crescent Guelph, ON",Guelph,409900,43.58168,-80.227325,House
208,269,"7393 Wellington Rd 51 . Ariss, ON",UNDEFINED,699000,43.596718,-80.34066,House
209,270,"69 Regal Road Guelph, ON",Guelph,6,43.550182,-80.301346,House
210,300,"3537 RAVENSWOOD Court Burlington, ON",Burlington,795000,43.352207,-79.769684,House
211,301,"3311 HANNIBAL Road Burlington, ON",Burlington,449900,43.367554,-79.803764,House
212,302,"# 309 - 399 ELIZABETH ST Burlington, ON",Burlington,574900,43.325534999999995,-79.794739,Condo/Apartment
213,303,"6420 CHELSEA RD Burlington, ON",Burlington,1589000,43.42214600000001,-79.928268,House
214,304,"1015 PLAINS VIEW Avenue Burlington, ON",Aldershot,499000,43.288478999999995,-79.876991,House
215,305,"1421 WALKER&#39;S Line Burlington, ON",Burlington,374900,43.377296,-79.799942,Condo/Apartment
216,306,"623 OXFORD Road Burlington, ON",Burlington,0,43.34333,-79.790581,House
217,307,"5134 Des Jardines Drive Burlington, ON",Burlington,590000,43.393284,-79.783401,House
218,308,"2416 Guildstone Cres Oakville, ON",West Oak Trails,788888,43.448833,-79.745132,House
219,309,"153 Dornie Rd Oakville, ON",Oakville,1699000,43.46468400000001,-79.651291,House
220,310,"28 Sixteen Mile Dr Oakville, ON",Oakville,875000,43.474312,-79.740219,House
221,311,"1218 Lambeth Rd Oakville, ON",Oakville,938888,43.471313,-79.6875,House
222,312,"2230 Rochester Circ Oakville, ON",Palermo West,1298000,43.424209999999995,-79.765709,House
223,313,"2172 Parkmount Blvd Oakville, ON",Oakville,1699000,43.49025,-79.696129,House
224,314,"2491 Hemmford Dr Oakville, ON",West Oak Trails,1150000,43.426398999999996,-79.758904,House
225,315,"#15 - 1300 Hampton St Oakville, ON",Oakville,399900,43.475967,-79.687119,Condo/Apartment
226,316,"2477 Old Bronte Rd Oakville, ON",West Oak Trails,1599000,43.434546999999995,-79.77462,House
227,318,"#5 - 1212 Kirstie Crt Oakville, ON",Castle Green,495000,43.465286,-79.698013,Condo/Apartment
228,319,"537 Weir Ave Oakville, ON",West Oakville,849000,43.428967,-79.700455,House
229,320,"#310 - 205 Lakeshore Rd Oakville, ON",Oakville,649000,43.436699,-79.678169,Condo/Apartment
230,321,"1293 Devon Rd Oakville, ON",Oakville,2738000,43.468716,-79.659775,House
231,322,"16 Ennisclare Dr Oakville, ON",Oakville,6999999,43.461479,-79.646126,House
232,323,"#Ph2202 - 1359 White Oaks Blvd Oakville, ON",Oakville,629000,43.471965999999995,-79.69345899999998,Condo/Apartment
233,324,"#522 - 2480 Prince Michael Dr Oakville, ON",Oakville,299900,43.497147,-79.707939,Condo/Apartment
234,325,"#403 - 205 Lakeshore Rd Oakville, ON",Oakville,610000,43.436699,-79.678169,Condo/Apartment
235,326,"202 - 2301 PARKHAVEN Boulevard Oakville, ON",Uptown Core,329900,43.476738,-79.71817,House
236,327,"1225 Lambeth Road Oakville, ON",Oakville,929900,43.471542,-79.686661,House
237,328,"#210 - 1490 BISHOPS GATE Oakville, ON",Glen Abbey,399900,43.439903,-79.739502,Condo/Apartment
238,329,"208 RIVER OAKS BLVD E Oakville, ON",Oakville,1080000,43.474734999999995,-79.710358,House
239,330,"2306 WHISTLING SPRINGS CRES Oakville, ON",West Oak Trails,799900,43.447029,-79.763397,House
240,331,"185 Robinson Street Oakville, ON",Oakville,475000,43.445029999999996,-79.667793,House
241,332,"205 Lakeshore Road Oakville, ON",Oakville,610000,43.436699,-79.678169,House
242,333,"146 Wedgewood Drive Oakville, ON",Oakville,1849000,43.466675,-79.649033,House
243,334,"1359 White Oaks Boulevard Oakville, ON",Oakville,629000,43.471965999999995,-79.69345899999998,House
244,336,"109 BURLOAK Drive Oakville, ON",Bronte,1029000,43.37368,-79.72670699999998,House
245,337,"2428 EIGHTH LINE Oakville, ON",Oakville,1199000,43.491077000000004,-79.710068,House
246,338,"400 CARRIER Lane Oakville, ON",Oakville,889000,43.46255900000001,-79.731163,House
247,339,"#61 - 2350 GRAND RAVINE DR Oakville, ON",Oakville,489900,43.475868,-79.72134399999999,Condo/Apartment
248,340,"1207 Wood Place Oakville, ON",West Oakville,910000,43.422874,-79.701424,House
249,341,"1 2480 Post Road Oakville, ON",Uptown Core,394900,43.47942000000001,-79.727173,House
250,342,"385 Sandlewood Road Oakville, ON",West Oakville,2348000,43.409557,-79.712807,House
251,343,"2141 Galena Crescent Oakville, ON",Oakville,948000,43.486557,-79.696915,House
252,344,"3404 Kinglet Court Oakville, ON",Bronte,1498000,43.378624,-79.726967,House
253,345,"2147 NIGHTSTAR DR Oakville, ON",Westmount,739000,43.43993,-79.749199,House
254,346,"2486 OLD BRONTE Road Oakville, ON",West Oak Trails,0,43.434551,-79.774925,House
255,347,"316 Wendy Lane Oakville, ON",West Oakville,2300,43.419968,-79.69716600000002,House
256,348,"280 Sarah Cline Drive Oakville, ON",Oakville,1950,43.474831,-79.738518,House
257,349,"179 Gatwick Drive Oakville, ON",Uptown Core,2350,43.47835900000001,-79.71642299999998,House
258,350,"153 Dornie Road Oakville, ON",Oakville,1699000,43.46468400000001,-79.651291,House
259,406,"#525 - 380 MACPHERSON AVE Toronto, ON",Midtown Toronto,699000,43.676369,-79.405739,Condo/Apartment
260,407,"#2704 - 103 THE QUEENSWAY WAY Toronto, ON",Swansea,789900,43.636292,-79.470467,Condo/Apartment
261,408,"#725 - 10 CAPREOL CRT Toronto, ON",Downtown,379000,43.640223999999996,-79.39595,Condo/Apartment
262,409,"#2103 - 151 DAN LECKIE WAY Toronto, ON",Downtown,568000,43.639782000000004,-79.397949,Condo/Apartment
263,410,"1453 GERRARD ST E Toronto, ON",Leslieville,29900,43.672264,-79.32128900000002,House
264,411,"#1407 - 914 YONGE ST Toronto, ON",Midtown Toronto,415000,43.674103,-79.388809,Condo/Apartment
265,412,"77 MCGILL ST Toronto, ON",Downtown,1299000,43.6604,-79.379234,House
266,413,"#307 - 20 BLUE JAYS WAY Toronto, ON",Downtown,650000,43.643845,-79.391823,Condo/Apartment
267,414,"#902 - 150 EAST LIBERTY ST Toronto, ON",Liberty Village,388000,43.638775,-79.41626,Condo/Apartment
268,415,"#511 - 44 GERRARD ST W Toronto, ON",Downtown,375000,43.658798,-79.384392,Condo/Apartment
269,416,"#Th6 - 6 PIRANDELLO ST Toronto, ON",King West Village,589900,43.63818,-79.413895,Condo/Apartment
270,417,"48 BALMORAL AVE Toronto, ON",Midtown Toronto,1399000,43.68544,-79.395966,House
271,418,"148 BLYTHWOOD RD Toronto, ON",Midtown Toronto,2799000,43.717831,-79.395996,House
272,419,"#432 - 231 FORT YORK BLVD Toronto, ON",Niagara,450000,43.636837,-79.406052,Condo/Apartment
273,420,"#N707 - 455 FRONT ST E Toronto, ON",Downtown,449900,43.652714,-79.3563,Condo/Apartment
274,421,"#711 - 2055 DANFORTH AVE Toronto, ON",East Danforth,397500,43.685455,-79.313133,Condo/Apartment
275,422,"712 BROCK AVE Toronto, ON",Wallace Emerson,939000,43.661915,-79.439941,House
276,423,"#319 - 900 MOUNT PLEASANT RD Toronto, ON",North Toronto,380000,43.711781,-79.39164,Condo/Apartment
277,424,"#630 - 155 DALHOUSIE ST Toronto, ON",Downtown,565000,43.65765,-79.376762,Condo/Apartment
278,425,"#915 - 50 WESTERN BATTERY RD Toronto, ON",Niagara,349000,43.639881,-79.414192,Condo/Apartment
279,426,"1004 126 Simcoe Street Toronto, ON",Entertainment District,573000,43.649025,-79.38713800000002,House
280,427,"#804 - 210 SIMCOE ST Toronto, ON",Downtown,589000,43.652451,-79.388931,Condo/Apartment
281,428,"#202 - 8 MERCER ST Toronto, ON",Downtown,299000,43.645984999999996,-79.389938,Condo/Apartment
282,429,"#4001 - 38 GRENVILLE ST Toronto, ON",Downtown,599000,43.661896,-79.38575,Condo/Apartment
283,430,"#411 - 10 YONGE ST Toronto, ON",Downtown,739900,43.642464000000004,-79.375519,Condo/Apartment
284,431,"#707 - 383 ELLIS PARK RD Toronto, ON",Swansea,1299900,43.652039,-79.470833,Condo/Apartment
285,432,"#2111 - 290 ADELAIDE ST W Toronto, ON",Downtown,508000,43.647942,-79.390945,Condo/Apartment
286,433,"#1807 - 58 ORCHARD VIEW BLVD Toronto, ON",Midtown Toronto,599000,43.708008,-79.400787,Condo/Apartment
287,434,"4 A VIOLET AVE Toronto, ON",The Beach,2095000,43.668625,-79.296623,House
288,435,"#702 - 500 SHERBOURNE ST Toronto, ON",Downtown,375000,43.667915,-79.375679,Condo/Apartment
289,438,"#2115 - 763 BAY ST Toronto, ON",Downtown,339000,43.660103,-79.385086,Condo/Apartment
290,439,"#406 - 707 DOVERCOURT RD Toronto, ON",Dufferin Grove,379900,43.660225,-79.428726,Condo/Apartment
291,440,"82 CHISHOLM AVE Toronto, ON",Woodbine - Lumsden,899900,43.690174,-79.304123,House
292,441,"#616 - 6 PARKWOOD AVE Toronto, ON",Midtown Toronto,579000,43.685623,-79.409592,Condo/Apartment
293,442,"#414 - 22 LEADER LANE Toronto, ON",Downtown,579000,43.64924600000001,-79.375755,Condo/Apartment
294,443,"#525 - 36 BLUE JAYS WAY Toronto, ON",Downtown,359900,43.644932,-79.392143,Condo/Apartment
295,444,"6 GROVE AVE Toronto, ON",Trinity - Bellwoods,919000,43.647694,-79.42276,House
296,445,"90 FAIRLEIGH CRES Toronto, ON",Midtown Toronto,1399000,43.70208,-79.437904,House
297,446,"295 Adelaide Street Toronto, ON",Downtown,1900,43.647663,-79.390419,House
298,447,"40 MALLON AVE W Toronto, ON",Leslieville,859000,43.665805999999996,-79.33489200000002,House
299,448,"#603 - 215 FORT YORK BLVD Toronto, ON",Niagara,289000,43.636345,-79.404808,Condo/Apartment
300,449,"#810 - 51 LOWER SIMCOE ST Toronto, ON",Entertainment District,560000,43.642208000000004,-79.383728,Condo/Apartment
301,450,"#1231 - 38 GRAND MAGAZINE ST Toronto, ON",Niagara,309900,43.637035,-79.402863,Condo/Apartment
302,452,"#407 - 105 THE QUEENSWAY AVE Toronto, ON",Swansea,269900,43.636173,-79.47075699999998,Condo/Apartment
303,453,"#2407 - 35 BALMUTO ST Toronto, ON",Downtown,425000,43.669456,-79.387474,Condo/Apartment
304,454,"#609 - 222 THE ESPLANADE Toronto, ON",Downtown,395000,43.649731,-79.365303,Condo/Apartment
305,455,"#2 B - 36 HAZELTON AVE Toronto, ON",Midtown Toronto,1399999,43.671864,-79.393814,Condo/Apartment
306,456,"#1315 - 150 EAST LIBERTY ST Toronto, ON",Liberty Village,375000,43.638775,-79.41626,Condo/Apartment
307,457,"#3614 - 18 YONGE ST Toronto, ON",Downtown,420000,43.644455,-79.37653399999998,Condo/Apartment
308,458,"#703 - 1166 BAY ST Toronto, ON",Downtown,1525000,43.668617,-79.38943499999998,Condo/Apartment
309,459,"#910 - 75 EAST LIBERTY ST Toronto, ON",Liberty Village,379900,43.638306,-79.414787,Condo/Apartment
310,460,"#2111 - 170 FORT YORK BLVD Toronto, ON",Downtown,449900,43.639343,-79.39984100000002,Condo/Apartment
311,461,"#1203 - 159 DUNDAS ST E Toronto, ON",Downtown,374000,43.656807,-79.37509200000002,Condo/Apartment
312,462,"1315 DANFORTH RD Toronto, ON",Eglinton East,699900,43.742371,-79.245285,House
313,463,"#39 - 17 PEMBROKE ST Toronto, ON",Downtown,500000,43.65671500000001,-79.37155899999998,Condo/Apartment
314,464,"#3010 - 2191 YONGE ST Toronto, ON",Davisville,415000,43.705597,-79.397453,Condo/Apartment
315,465,"#728 - 2 OLD MILL DR Toronto, ON",Lambton Baby Point,404900,43.648071,-79.486664,Condo/Apartment
316,466,"#211 - 2 OLD MILL DR Toronto, ON",Lambton Baby Point,514900,43.648071,-79.486664,Condo/Apartment
317,469,"#902 - 2261 LAKE SHORE BLVD W Toronto, ON",Mimico,699995,43.62001,-79.483086,Condo/Apartment
318,470,"#3005 - 2015 SHEPPARD AVE E Toronto, ON",Henry Farm,399000,43.775208,-79.336426,Condo/Apartment
319,471,"#1606 - 19 SINGER CRT Toronto, ON",Bayview Village,349900,43.769569,-79.369514,Condo/Apartment
320,472,"129 WATSON AVE Toronto, ON",Lambton,959000,43.664501,-79.492035,House
321,473,"154 DUNBLAINE AVE Toronto, ON",Nortown,2698000,43.734093,-79.42907,House
322,474,"24 CORONATION DR Toronto, ON",West Hill,669000,43.760899,-79.191841,House
323,475,"#210 - 165 CHEROKEE BLVD Toronto, ON",Pleasant View,385000,43.792374,-79.33669300000003,Condo/Apartment
324,476,"#5 - 175 TORYORK DR Toronto, ON",Humber Summit,312900,43.757954,-79.557304,Condo/Apartment
325,477,"#905 - 120 HARRISON GARDEN BLVD Toronto, ON",Willowdale,399000,43.757988,-79.403625,Condo/Apartment
326,478,"93 DAIRY DR Toronto, ON",Scarborough Junction,678000,43.701309,-79.27533000000003,House
327,479,"#2010 - 100 MORNELLE CRT Toronto, ON",Morningside,255999,43.786823,-79.19548,Condo/Apartment
328,480,"195 GILTSPUR DR Toronto, ON",Downsview,619900,43.738079,-79.50128199999997,House
329,481,"#1016 - 55 DE BOERS DR Toronto, ON",Toronto,352500,43.75103,-79.465858,Condo/Apartment
330,482,"#2308 - 2000 ISLINGTON AVE Toronto, ON",Kingsview Village,479900,43.69736500000001,-79.546089,Condo/Apartment
331,483,"#13 - 1415 KENNEDY RD Toronto, ON",Dorset Park,688888,43.764812,-79.280273,Condo/Apartment
332,484,"3 JASMINE RD Toronto, ON",Humberlea,599000,43.721088,-79.538445,House
333,485,"#809 - 40 PANORAMA CRT Toronto, ON",Rexdale,59500,43.747585,-79.579842,Condo/Apartment
334,486,"35 MAGNOLIA AVE Toronto, ON",Kennedy Park,749000,43.720936,-79.254662,House
335,487,"#513 - 4200 BATHURST ST Toronto, ON",Wilson Heights,294000,43.749321,-79.437149,Condo/Apartment
336,488,"#25 - 21 REPLIN RD Toronto, ON",Lawrence Heights,575000,43.717735,-79.44203900000002,Condo/Apartment
337,489,"198 GLENDORA AVE Toronto, ON",Willowdale,1528000,43.761971,-79.397667,House
338,491,"53 ASPENWOOD DR Toronto, ON",Hillcrest Village,2000000,43.807964,-79.366913,House
339,492,"627 CALEDONIA RD Toronto, ON",Briar Hill - Belgravia,650000,43.694396999999995,-79.462372,House
340,493,"#903 - 335 MILL RD Toronto, ON",Eringate - Centennial - West Deane,259900,43.639858000000004,-79.584564,Condo/Apartment
341,494,"#730 - 2885 BAYVIEW AVE Toronto, ON",Bayview Village,524888,43.767936999999996,-79.387955,Condo/Apartment
342,495,"124 GREENWICH SQ Toronto, ON",Eglinton East,699800,43.743881,-79.231148,House
343,496,"#2813 - 181 VILLAGE GREEN SQ Toronto, ON",Agincourt,293900,43.779205,-79.28151700000002,Condo/Apartment
344,497,"117 VEROBEACH BLVD Toronto, ON",Emery,699800,43.736176,-79.544945,House
345,498,"43 JOHN CABOT WAY Toronto, ON",Jane and Finch,399900,43.738815,-79.51902,House
346,499,"#821 - 165 LEGION RD N Toronto, ON",Mimico,314900,43.624207,-79.488228,Condo/Apartment
347,500,"63 JARWICK DR Toronto, ON",Bendale,639000,43.764198,-79.241608,House
348,501,"22 MOSSBROOK CRES Toronto, ON",L'Amoreaux,699000,43.809433,-79.32437900000002,House
349,502,"92 FRANK RIVERS DR Toronto, ON",Steeles,699900,43.818989,-79.32539399999997,House
350,503,"90 CRITTENDEN SQ Toronto, ON",Malvern,549000,43.81366,-79.234749,House
351,504,"#1304 - 2 ANNDALE DR Toronto, ON",Willowdale,418888,43.760464,-79.410248,Condo/Apartment
352,505,"45 MILLENNIUM DR Toronto, ON",Brookhaven - Amesbury,599900,43.69527100000001,-79.497498,House
353,506,"6 WOODY VINEWAY WAY Toronto, ON",Bayview Village,529000,43.788269,-79.368301,House
354,507,"84 MUIRHEAD RD Toronto, ON",Pleasant View,599000,43.780949,-79.339569,House
355,508,"#1101 - 335 MILL RD Toronto, ON",Eringate - Centennial - West Deane,419900,43.639858000000004,-79.584564,Condo/Apartment
356,509,"#2611 - 88 CORPORATE DR Toronto, ON",Woburn,355000,43.780956,-79.249779,Condo/Apartment
357,510,"114 MEIGHEN AVE Toronto, ON",Woodbine Gardens,665000,43.703903000000004,-79.295723,House
358,511,"821 B OXFORD ST Toronto, ON",Mimico,778900,43.621113,-79.507195,House
359,512,"132 ELVASTON DR Toronto, ON",Victoria Village,1388800,43.728958,-79.315933,House
360,513,"#2102 - 155 BEECROFT RD Toronto, ON",Willowdale,299000,43.765537,-79.413155,Condo/Apartment
361,514,"#1010 - 3043 FINCH WEST AVE Toronto, ON",Emery,309000,43.747166,-79.564651,Condo/Apartment
362,515,"571 CUMMER AVE Toronto, ON",Newtonbrook,1599000,43.793625,-79.387253,House
363,516,"31 VESSEL CRES Toronto, ON",Port Union,756900,43.777721,-79.137276,House
364,517,"#109 - 165 CHEROKEE BLVD Toronto, ON",Pleasant View,372000,43.792374,-79.33669300000003,Condo/Apartment
365,518,"37 GEMINI RD Toronto, ON",Bayview Woods - Steeles,1369000,43.788219,-79.388046,House
366,519,"7 OVIDA AVE Toronto, ON",Eatonville,1569000,43.635109,-79.543159,House
367,520,"#E 508 - 555 WILSON AVE Toronto, ON",Wilson Heights,319900,43.734035,-79.447968,Condo/Apartment
368,521,"#49 - 49 HENDON AVE Toronto, ON",Newtonbrook,520000,43.780727,-79.41999100000002,Condo/Apartment
369,525,"#1008 - 5 NORTHTOWN WAY Toronto, ON",Willowdale,335000,43.774994,-79.413467,Condo/Apartment
370,526,"#2504 - 2220 LAKE SHORE BLVD W Toronto, ON",Mimico,425000,43.62273,-79.483192,Condo/Apartment
371,527,"#108 - 275 BAMBURGH CIRC Toronto, ON",Steeles,381000,43.81361,-79.32341,Condo/Apartment
372,528,"#1202 - 185 BONIS AVE Toronto, ON",Tam O'Shanter,338000,43.785804999999996,-79.292114,Condo/Apartment
373,529,"#2208 - 100 ANTIBES DR Toronto, ON",Newtonbrook,299000,43.780666,-79.44633499999998,Condo/Apartment
374,530,"#509 - 525 WILSON AVE Toronto, ON",Wilson Heights,339900,43.734478,-79.446472,Condo/Apartment
375,531,"80 HEPSCOTT TERR Toronto, ON",L'Amoreaux,799000,43.793324,-79.327263,House
376,532,"#27 - 242 JOHN GARLAND BLVD Toronto, ON",Rexdale,200000,43.73354000000001,-79.592949,Condo/Apartment
377,533,"7 LANDOUR AVE Toronto, ON",Silverthorn,829000,43.687645,-79.477287,House
378,534,"4937 DUNDAS ST W Toronto, ON",Islington,54900,43.648006,-79.529228,House
379,535,"90 GLEN PARK AVE Toronto, ON",Midtown Toronto,1395000,43.711784,-79.43515,House
380,536,"#1210 - 275 BAMBURGH CIRC Toronto, ON",Steeles,269000,43.81361,-79.32341,Condo/Apartment
381,537,"225 ATLAS AVE Toronto, ON",Midtown Toronto,1420000,43.688213,-79.433723,House
382,538,"108 AYLESWORTH AVE Toronto, ON",Birch Cliff,455000,43.701328000000004,-79.264549,House
383,539,"567 MELROSE AVE Toronto, ON",Nortown,2388000,43.727737,-79.42942,House
384,540,"55 LAURIE SHEPWAY WAY Toronto, ON",Don Valley Village,669000,43.773926,-79.361595,House
385,541,"33 PUMA DR Toronto, ON",L'Amoreaux,599000,43.802258,-79.29860699999998,House
386,542,"#155 - 68 DRIFTWOOD AVE Toronto, ON",Jane and Finch,239900,43.753849,-79.513535,Condo/Apartment
387,543,"17 WHITBREAD CRES Toronto, ON",Jane and Finch,575000,43.74192,-79.509659,House
388,544,"36 CASTLEBAR RD Toronto, ON",The Queensway,849500,43.631695,-79.510124,House
389,545,"92 BLANTYRE AVE Toronto, ON",Birch Cliff,2348900,43.678131,-79.280182,House
390,546,"#27 -46 - 30 IRONSIDE CRES Toronto, ON",Armdale,345,43.825053999999994,-79.24681899999999,Condo/Apartment
391,547,"#302 - 801 SHEPPARD AVE W Toronto, ON",Wilson Heights,318000,43.752891999999996,-79.449783,Condo/Apartment
392,548,"#601 - 1888 BAYVIEW AVE Toronto, ON",Midtown Toronto,1148000,43.717461,-79.37886,Condo/Apartment
393,549,"#2308 - 88 SHEPPARD AVE E Toronto, ON",Willowdale,399800,43.763969,-79.407013,Condo/Apartment
394,550,"#827 - 2 EVA RD Toronto, ON",Eatonville,274900,43.639694,-79.563148,Condo/Apartment
395,551,"#711 - 125 PETER ST Toronto, ON",Downtown,401900,43.648296,-79.39295200000002,Condo/Apartment
396,552,"#1702 - 210 SIMCOE ST Toronto, ON",Downtown,388800,43.652451,-79.388931,Condo/Apartment
397,553,"63 COUNCIL CRES Toronto, ON",Jane and Finch,599900,43.759514,-79.491844,House
398,554,"#1508 - 121 MCMAHON DR Toronto, ON",Bayview Village,478000,43.767746,-79.370918,Condo/Apartment
399,555,"#738 - 650 LAWRENCE AVE W Toronto, ON",Lawrence Heights,357000,43.717121,-79.441757,Condo/Apartment
400,556,"#3501 - 70 TEMPERANCE ST Toronto, ON",Downtown,593900,43.650372,-79.382347,Condo/Apartment
401,558,"#108 - 525 WILSON AVE Toronto, ON",Wilson Heights,455000,43.734478,-79.446472,Condo/Apartment
402,559,"#1902 - 35 HOLLYWOOD AVE Toronto, ON",Willowdale,399000,43.765842,-79.410057,Condo/Apartment
403,560,"#1414 - 85 BLOOR ST E Toronto, ON",Downtown,419000,43.670372,-79.384468,Condo/Apartment
404,561,"#2607 - 2200 LAKESHORE BLVD Toronto, ON",Mimico,437888,43.622883,-79.481972,Condo/Apartment
405,562,"#1207 - 2550 LAWRENCE AVE E Toronto, ON",Dorset Park,229000,43.751743,-79.266388,Condo/Apartment
406,563,"#207 - 55 ANN O&#39;REILLY RD Toronto, ON",Port Hope,497250,43.960762,-78.323914,Condo/Apartment
407,565,"#111 - 215 FORT YORK BLVD Toronto, ON",Niagara,303400,43.636345,-79.404808,Condo/Apartment
408,566,"#3511 - 14 YORK ST Toronto, ON",Downtown,299999,43.641788,-79.381874,Condo/Apartment
409,567,"25 DELABO DR Toronto, ON",York University Heights,779000,43.76524000000001,-79.502808,House
410,568,"#5014 - 70 TEMPERANCE ST Toronto, ON",Downtown,419900,43.650372,-79.382347,Condo/Apartment
411,570,"#3105 - 33 SINGER CRT Toronto, ON",Bayview Village,475000,43.769611,-79.368416,Condo/Apartment
412,571,"#602 - 11 BOGERT AVE Toronto, ON",Lansing,589000,43.760517,-79.411743,Condo/Apartment
413,572,"9 ANTELOPE DR Toronto, ON",Rouge,899900,43.808025,-79.189018,House
414,573,"278 BETTY ANN DR N Toronto, ON",Willowdale,2498000,43.765755,-79.433098,House
415,574,"#711 - 6 EVA RD Toronto, ON",Eatonville,289900,43.640301,-79.562302,Condo/Apartment
416,575,"#3103 - 28 TED ROGERS WAY Toronto, ON",Downtown,378000,43.670547,-79.380585,Condo/Apartment
417,576,"#2702 - 101 CHARLES ST E Toronto, ON",Downtown,559800,43.669643,-79.380608,Condo/Apartment
418,577,"#Th 40 - 31 CONEFLOWER CRES Toronto, ON",Newtonbrook,688000,43.778427,-79.45053100000001,Condo/Apartment
419,578,"#2316 - 700 HUMBERWOOD BLVD Toronto, ON",Rexdale,239900,43.724765999999995,-79.616486,Condo/Apartment
420,629,"#1905 - 17 Anndale Dr Toronto, ON",Willowdale,568000,43.760135999999996,-79.40789000000002,Condo/Apartment
421,630,"#305 - 39 Shank St Toronto, ON",King West Village,636000,43.642071,-79.41458100000001,Condo/Apartment
422,640,"9 Andrew Ave Toronto, ON",Cliffcrest,599000,43.721256,-79.24503299999998,House
423,682,"#1815 - 150 Sudbury St Toronto, ON",Little Portugal,330000,43.641529,-79.424118,Condo/Apartment
424,683,"23 Kenton Dr Toronto, ON",Newtonbrook,949900,43.77861400000001,-79.441551,House
425,731,"385 Oaklawn Crescent Ottawa, ON",Orléans,339900,45.465637,-75.488403,House
426,732,"124 Breezehill Avenue Ottawa, ON",Ottawa,629900,45.404568,-75.718109,House
427,733,"206 Gray Crescent Ottawa, ON",Kanata,318800,45.317345,-75.898247,House
428,734,"1201 OHIO STREET UNIT#107 Ottawa, ON",Alta Vista,297500,45.384857000000004,-75.673737,Condo/Apartment
429,735,"1141 AMBLESIDE DRIVE Ottawa, ON",Ottawa,379900,45.372601,-75.781059,House
430,736,"1085 BORDEN SIDE ROAD Ottawa, ON",Borden Farm - Stewart Farm - Parkwood Hills - Fisher Glen,289900,45.354012,-75.705315,House
431,737,"2546 NEEDHAM CRESCENT Ottawa, ON",Alta Vista,518800,45.37181500000001,-75.667976,House
432,738,"3205 UPLANDS DRIVE UNIT#31 Ottawa, ON",Hunt Club East - Western Community,268900,45.350307,-75.67961899999997,Condo/Apartment
433,739,"180 YORK STREET UNIT#806 Ottawa, ON",Byward Market,208900,45.42968,-75.68856,Condo/Apartment
434,740,"1015 CARLING AVENUE Ottawa, ON",Civic Hospital - Experimental Farm - Central Park,1295000,45.393551,-75.717422,House
435,741,"200 BAY STREET UNIT#501 Ottawa, ON",Byward Market - Parliament Hill,240000,45.416851,-75.705475,Condo/Apartment
436,742,"75 ARLINGTON AVENUE Ottawa, ON",Centretown,448888,45.409275,-75.69487,House
437,743,"62 ESTERLAWN PRIVATE Ottawa, ON",Carlingwood West - Glabar Park - McKellar Heights,289900,45.368946,-75.767921,House
438,744,"176 GLADSTONE AVENUE Ottawa, ON",Centretown,769000,45.415015999999994,-75.686661,House
439,745,"238 BESSERER STREET UNIT#414 Ottawa, ON",Ottawa,290000,45.427834000000004,-75.68547099999998,Condo/Apartment
440,746,"1387 ORILLIA STREET Ottawa, ON",Alta Vista,499900,45.385185,-75.66465,House
441,747,"1838 PEPPERGRASS ROAD Ottawa, ON",Orléans,499000,45.480251,-75.465752,House
442,748,"449 SADAR PRIVATE Ottawa, ON",Munster Hamlet - Richmond,255900,45.263744,-75.77619200000002,House
443,749,"2954 PRINCE OF WALES DRIVE Ottawa, ON",Greenbelt,789900,45.298072999999995,-75.70182,House
444,750,"2111 MONTREAL ROAD UNIT#89 Ottawa, ON",Beacon Hill North,248000,45.449188,-75.591904,Condo/Apartment
445,751,"1635 FRENETTE STREET Ottawa, ON",Orléans,419000,45.47591,-75.465561,House
446,752,"1 DELONG DRIVE Ottawa, ON",Ottawa,989000,45.453053000000004,-75.608871,House
447,753,"770 PAUL METIVIER DRIVE Ottawa, ON",New Barrhaven,329000,45.265137,-75.734337,House
448,754,"925 BEAUCLAIRE DRIVE Ottawa, ON",Orléans,389900,45.486462,-75.528824,House
449,755,"6163 RED WILLOW DRIVE Ottawa, ON",Orléans,279900,45.451088,-75.53137199999998,House
450,756,"374 BALINROAN CRESCENT Ottawa, ON",New Barrhaven,326800,45.268707,-75.732681,House
451,757,"81 BARONESS DRIVE Ottawa, ON",Greenbelt,619900,45.290211,-75.706245,House
452,758,"20 COACHMAN CRESCENT Ottawa, ON",Stittsville,685000,45.256332,-75.936829,House
453,759,"2423 ORIENT PARK DRIVE Ottawa, ON",Blackburn Hamlet,299900,45.433681,-75.55289499999998,House
454,760,"1356 COLONIAL ROAD Navan, ON",Navan,424900,45.422503999999996,-75.418571,House
455,761,"1042 AVIGNON COURT Orleans, ON",Orléans,284900,45.48325,-75.532013,House
456,762,"1139 ST EMMANUEL STREET Orleans, ON",Orléans,319900,45.47718,-75.540764,House
457,763,"5745 ANDRASI CRESCENT Osgoode, ON",Osgoode,399900,45.15126,-75.59787,House
458,764,"120 DELANEY DRIVE Carp, ON",Carp,325000,45.294090000000004,-76.07527900000002,House
459,765,"818 ROCKSON CRESCENT Stittsville, ON",Stittsville,899900,45.246834,-75.926735,House
460,766,"408 BRECKENRIDGE CRESCENT Ottawa, ON",Kanata,319900,45.355247,-75.935486,House
461,767,"2 MCCONNELL AVENUE Cornwall, ON",Cornwall,259000,45.016449,-74.707817,House
462,768,"1051 Glidden Av Windsor, ON",Riverside,179900,42.324234000000004,-82.962349,House
463,772,"2211 CURRY Windsor, ON",South Cameron,219800,42.281033,-83.036537,House
464,773,"2427 HOWARD Windsor, ON",South Central,74900,42.293015000000004,-83.01443499999998,House
465,775,"456 LAPORTE Windsor, ON",Riverside,184900,42.335136,-82.942261,House
466,777,"675 BRAZIL Windsor, ON",Remington Park,89900,42.28986,-83.01046,House
467,778,"1361 CAMPBELL Windsor, ON",University,124900,42.295722999999995,-83.04917900000002,House
468,779,"1565 VILLA MARIA  S Windsor, ON",Roseland,289900,42.247417,-83.015579,House
469,780,"1049 LENA AV Windsor, ON",Sandwich,79900,42.294823,-83.06620799999997,House
470,781,"1557 LINCOLN Windsor, ON",Walkerville,124900,42.306332,-83.00634000000002,House
471,782,"1515 GLADSTONE Windsor, ON",Walkerville,119900,42.307109999999994,-83.008003,House
472,783,"950 ELLROSE Windsor, ON",East Windsor,229900,42.322353,-82.979439,House
473,784,"1260 -64 WYANDOTTE  E Windsor, ON",Walkerville,395000,42.320396,-83.019547,House
474,785,"1829 DOMINION Windsor, ON",South Cameron,289900,42.287997999999995,-83.038437,House
475,786,"4140 ROSELAND  W Windsor, ON",Roseland,539900,42.249111,-83.009056,House
476,787,"472 BRIDGE Windsor, ON",University,112000,42.308056,-83.058739,House
477,788,"455 Hyde Park Rd London, ON",Oakridge,349900,42.966244,-81.31564300000002,House
478,789,"1360 Glenora Dr London, ON",Stoneybrook,269900,43.033077,-81.239372,House
479,790,"90 DELAWARE Street London, ON",Hamilton Road,159900,42.975544,-81.20118000000002,House
480,791,"2129 NORTH ROUTLEDGE PK London, ON",Hyde Park,259900,43.003849,-81.333084,House
481,792,"9 - 141 CONDOR Court London, ON",Argyle,148900,42.988762,-81.176979,House
482,793,"401 - 570 WILLIAM Street London, ON",Central London,159900,42.993401,-81.236397,House
483,794,"559 HWY Parry Sound, ON",Parry Sound,49000,45.440887,-80.131989,House
484,795,"35 - 340 AMBLESIDE Drive London, ON",Masonville,239900,43.020699,-81.298203,House
485,796,"5991 LUNDY&#39;S Lane Niagara Falls, ON",Niagara Falls,399000,43.089775,-79.09360500000003,Condo/Apartment
486,797,"3955 Portage Road Niagara Falls, ON",Niagara Falls,164900,43.116062,-79.09949499999998,House
487,798,"4719 EPWORTH Circle Niagara Falls, ON",Niagara Falls,238000,43.098534,-79.069298,House
488,799,"7813 BEAVERDAMS Road Niagara Falls, ON",Niagara Falls,299900,43.09145,-79.126511,House
489,800,"6617 FREDERICA Street Niagara Falls, ON",Niagara Falls,349900,43.094986,-79.105583,House
490,801,"28 5070 DRUMMOND Road Niagara Falls, ON",Niagara Falls,284900,43.100479,-79.098167,House
491,802,"6175 Skinner Street Niagara Falls, ON",Niagara Falls,159900,43.074432,-79.096474,House
492,803,"1710 Garner Road Niagara Falls, ON",Niagara Falls,599900,43.145245,-79.149513,House
493,804,"3710 Main Street Niagara Falls, ON",Niagara Falls,155000,43.058968,-79.050613,House
494,805,"303 6928 AILANTHUS Avenue Niagara Falls, ON",Niagara Falls,224900,43.075092,-79.08899699999998,House
495,806,"5026 CENTRE Street Niagara Falls, ON",Niagara Falls,298000,43.092335,-79.077042,House
496,807,"8174 ORCHARD GROVE Parkway Niagara Falls, ON",Niagara Falls,359900,43.092017999999996,-79.13421600000002,House
497,808,"3282 Cattell Drive Niagara Falls, ON",Niagara Falls,319900,43.05563,-79.042099,House
498,809,"4340 Seneca Street Niagara Falls, ON",Niagara Falls,319900,43.10024600000001,-79.064995,House
499,810,"6697 SPENCE Street Niagara Falls, ON",Niagara Falls,352000,43.088139,-79.10675,House
500,811,"8674 MCGARRY Drive Niagara Falls, ON",Niagara Falls,485900,43.072556,-79.143013,House
501,812,"7700 Thomas Street Niagara Falls, ON",Niagara Falls,219900,43.056118,-79.064247,House
502,813,"9440 Eagle Ridge Drive Niagara Falls, ON",Niagara Falls,348000,43.089443,-79.158173,House
503,814,"4727 Jepson Street Niagara Falls, ON",Niagara Falls,199000,43.100815000000004,-79.071495,House
504,815,"6118 Kelsey Crescent Niagara Falls, ON",Niagara Falls,289990,43.084431,-79.137497,House
505,816,"147 UNIVERSITY Avenue E Waterloo, ON",Waterloo,379900,43.480255,-80.51391600000002,House
506,817,"#Cp625 - 330 PHILLIP ST Waterloo, ON",Waterloo,340000,43.476440000000004,-80.538872,Condo/Apartment
507,818,"300 Pilgrim Circle Waterloo, ON",Waterloo,1395000,43.499935,-80.512299,House
508,819,"596 Regal Place Waterloo, ON",Waterloo,1500000,43.477160999999995,-80.604462,House
509,820,"6 Willow Street Waterloo, ON",Waterloo,399900,43.465472999999996,-80.516914,House
510,821,"452 Ainsworth Court Waterloo, ON",Beechwood,744900,43.455589,-80.560898,House
511,823,"196 ALEXANDRA Avenue Waterloo, ON",Waterloo,460000,43.457122999999996,-80.531189,House
512,824,"305 MAVERICK Street Waterloo, ON",Waterloo,359900,43.500134,-80.49166899999999,House
513,825,"764 ZERMATT DR Waterloo, ON",Waterloo,369000,43.455921000000004,-80.575035,House
514,826,"478 Lausanne Crescent Waterloo, ON",Waterloo,339900,43.453083,-80.57558399999998,House
515,827,"#T2 -210- 330 PHILLIP ST Waterloo, ON",Waterloo,415000,43.476440000000004,-80.538872,Condo/Apartment
516,828,"522 Beechwood Drive Waterloo, ON",Beechwood,274900,43.451122,-80.562279,House
517,829,"115 Roslin Avenue Waterloo, ON",Waterloo,699000,43.455444,-80.526154,House
518,830,"191 King Street Waterloo, ON",Waterloo,1650,43.45939600000001,-80.518845,House
519,831,"647 Albert Street Waterloo, ON",Waterloo,225000,43.491013,-80.540924,House
520,832,"# L18 Regal Place Waterloo, ON",Waterloo,1300000,43.477406,-80.60335500000002,Condo/Apartment
521,833,"324 Tealby Crescent Waterloo, ON",Waterloo,599900,43.490051,-80.52336899999997,House
522,834,"776 Laurelwood Drive Waterloo, ON",Waterloo,249900,43.470776,-80.598259,House
523,835,"176 Cavelletti Court Waterloo, ON",Waterloo,345000,43.489429,-80.484985,House
524,836,"279 GLENRIDGE Place Waterloo, ON",Waterloo,405000,43.485199,-80.511269,House
525,837,"130 Marshall Street Waterloo, ON",Waterloo,1600,43.475807,-80.515541,House
526,838,"472 Kingsmill Court Waterloo, ON",Beechwood,649900,43.46368,-80.569458,House
527,839,"986 Creekside Drive Waterloo, ON",Waterloo,329900,43.471558,-80.599762,House
528,840,"413 Bairstow Crescent Waterloo, ON",Waterloo,214900,43.492432,-80.508278,House
529,841,"395 Cavendish Drive Waterloo, ON",Laurelwood,750000,43.463894,-80.579041,House
530,842,"425 Grangewood Drive Waterloo, ON",Waterloo,339900,43.492649,-80.500488,House
531,843,"642 Ellesmere Court Waterloo, ON",Waterloo,379900,43.496864,-80.572464,House
532,844,"138 Stonehaven Drive Waterloo, ON",Waterloo,499000,43.444148999999996,-80.544327,House
533,845,"lot #4 Regal Place Waterloo, ON",Waterloo,1250000,43.477406,-80.60335500000002,Condo/Apartment
534,846,"405 Cider Mill Drive Waterloo, ON",Waterloo,514771,43.525036,-80.495377,House
535,847,"562 FOREST GATE CRES Waterloo, ON",Waterloo,699000,43.476729999999996,-80.596878,House
536,848,"138 Windale Cres Kitchener, ON",Laurentian Hills,364999,43.421046999999994,-80.507317,House
537,850,"1503 81 CHURCH Street Kitchener, ON",Cedar Hill,194500,43.446644,-80.487755,House
538,851,"164 Max Becker Drive Kitchener, ON",Laurentian West,285000,43.403786,-80.506622,House
539,852,"44 Eliza Avenue Kitchener, ON",Laurentian West,322175,43.39922,-80.524658,House
540,853,"300 Westmount Road E Kitchener, ON",Meinzinger State Park,385900,43.42606,-80.50466899999998,House
541,854,"8 305 Briarmeadow Drive Kitchener, ON",Idlewood,325000,43.43996,-80.422363,House
542,855,"417 Courtland Avenue Kitchener, ON",Mill Courtland Woodside Park,295000,43.437489,-80.47829399999998,House
543,856,"1133 Doon Village Road Kitchener, ON",Doon South,619900,43.388584,-80.431282,House
544,857,"394 Activa Avenue Kitchener, ON",Laurentian West,374500,43.40450300000001,-80.519814,House
545,858,"35 Ridgeway Crescent Kitchener, ON",Country Hills West,374900,43.406620000000004,-80.49703199999998,House
546,859,"354 Apple Hill Crescent Kitchener, ON",Trussler,459900,43.387787,-80.4925,House
547,860,"283 Erinbrook Drive Kitchener, ON",Country Hills West,359900,43.404907,-80.49524699999998,House
548,861,"480 Veronica Drive Kitchener, ON",Centreville Chicopee,419900,43.439445,-80.428741,House
549,862,"38 Amelia Street Kitchener, ON",Grand River South,599000,43.449482,-80.40774499999998,House
550,863,"204 VANIER Drive Kitchener, ON",Vanier,374900,43.426662,-80.4618,House
551,864,"48 HIGHBROOK Street Kitchener, ON",Laurentian Hills,327900,43.409439,-80.499725,House
552,865,"17 60 ELMSDALE Drive Kitchener, ON",Laurentian Hills,184000,43.422153,-80.49585,House
553,866,"10 Yarrow Court Kitchener, ON",Laurentian West,514900,43.402744,-80.511238,House
554,867,"11 3 Sims Estate Place Kitchener, ON",Centreville Chicopee,699000,43.438904,-80.420242,House
555,868,"236 OREGON Court Kitchener, ON",Doon South,959900,43.387577,-80.431694,House
556,869,"209 Northmanor Crescent Kitchener, ON",Highland West,415900,43.438423,-80.54956800000002,House
557,870,"227 Chestnut Hill Crescent Kitchener, ON",Doon South,2300,43.381294,-80.427307,House
558,871,"247 PIONEER Drive Kitchener, ON",Pioneer Park,180000,43.39362,-80.439751,House
559,873,"529 TERRINGTON Crescent Kitchener, ON",Doon South,864000,43.37632,-80.428032,House
560,874,"66 Borden Avenue Kitchener, ON",King East,270000,43.444454,-80.472672,House
561,875,"91 Georgian Crescent Kitchener, ON",Grand River North,449800,43.467094,-80.44216899999998,House
562,876,"6 165 GREEN VALLEY Drive Kitchener, ON",Pioneer Park,164900,43.39548900000001,-80.427216,House
563,877,"212 3227 KING Street E Kitchener, ON",Centreville Chicopee,189900,43.425385,-80.42540699999998,House
564,878,"65 Cluthe Crescent Kitchener, ON",Pioneer Park,299900,43.397125,-80.45217099999998,House
565,879,"10 Royal Orchard Place Kitchener, ON",Forest Heights,359900,43.415348,-80.52948,House
566,880,"41 Cambridge Avenue Kitchener, ON",Rosemount,315000,43.457245,-80.465225,House
567,881,"95 Bridlewreath Street Kitchener, ON",Laurentian West,399900,43.405163,-80.510262,House
568,882,"22 CEDARLAWN Court Hamilton, ON",Gurnett,579900,43.220734,-79.921524,House
569,883,"129 EAST 31ST Street Hamilton, ON",Raleigh,349900,43.234478,-79.845093,House
570,884,"23 BORDEAUX Court Hamilton, ON",Barnstown,569900,43.199207,-79.875671,House
571,888,"975 UPPER WELLINGTON Street Hamilton, ON",Bruleville,299900,43.224483,-79.872437,House
572,889,"#2 - 300 REXFORD DR Hamilton, ON",Randall,319900,43.207240999999996,-79.849724,Condo/Apartment
573,891,"226 SOUTHWOOD Drive Hamilton, ON",Sherwood,359000,43.225456,-79.818954,House
574,892,"193 East 19th Street Hamilton, ON",Inch Park,324900,43.236198,-79.857582,House
575,893,"# 703 - 66 BAY ST S Hamilton, ON",Durand,349900,43.255989,-79.87514499999997,Condo/Apartment
576,894,"295-297 OTTAWA Street Hamilton, ON",Crown Point West,367800,43.250462,-79.816887,House
577,895,"532 FERGUSON Avenue Hamilton, ON",North End East,229900,43.27071,-79.854385,House
578,896,"517 UPPER JAMES Street Hamilton, ON",Centremount,319900,43.242424,-79.87554200000002,House
579,897,"5 HILTON Street Hamilton, ON",Durand,1280000,43.248795,-79.8787,House
580,898,"48 Evans Street Hamilton, ON",Central Hamilton,359000,43.25713,-79.85566700000003,House
581,900,"202 BELMONT Avenue Hamilton, ON",Crown Point West,535000,43.249962,-79.822159,House
582,901,"1749 UPPER WENTWORTH Street Hamilton, ON",Chappel East,375000,43.196201,-79.873352,House
583,903,"102 NEIL AVE Hamilton, ON",Greenford,285900,43.227160999999995,-79.767403,House
584,905,"148 BURTON Street Hamilton, ON",Industrial Sector A and Keith,199900,43.263344000000004,-79.845551,House
585,906,"150 AVONDALE Street Hamilton, ON",Crown Point West,289500,43.252604999999996,-79.82534799999998,House
586,907,"#335 - 5679 ARROWHEAD RD Hamilton Township, ON",Bailieboro,399900,44.119431,-78.314758,Condo/Apartment
587,908,"5679 ARROWHEAD RD|Unit 335 BAILIEBORO RICE LAKE, ON",Bailieboro,399900,44.120411,-78.314285,House
588,970,"803 CHAPMAN BOULEVARD Ottawa, ON",Elmvale - Eastway - Riverview - Riverview Park West,374900,45.396999,-75.632889,House
589,971,"69 PELLAN WAY Ottawa, ON",Kanata,547500,45.328678000000004,-75.907623,House
590,972,"LOT 4 ST. PAUL Windsor, ON",Riverside,55000,42.330109,-82.943413,House
591,973,"1825 WESTMINSTER Windsor, ON",East Windsor,249900,42.313999,-82.967163,House
592,974,"649 ESTATE PK Tecumseh, ON",Windsor,239900,42.310738,-82.846184,House
593,975,"220 CHELTON Road London, ON",Jackson,339900,42.960289,-81.175217,House
594,978,"5 - 30 CLARENDON Crescent London, ON",White Oaks,174900,42.947899,-81.240601,House
595,979,"2 3710 MAIN Street Niagara Falls, ON",Niagara Falls,155000,43.058968,-79.050613,House
596,980,"6911 DEVON Drive Niagara Falls, ON",Niagara Falls,365900,43.074615,-79.131821,House
597,981,"375 King Street Waterloo, ON",Waterloo,149900,43.482498,-80.527054,House
598,982,"Lot #156 Snowberry Court Waterloo, ON",Waterloo,844900,43.457218,-80.600441,Condo/Apartment
599,984,"B 176 CAVELLETTI Court Waterloo, ON",Waterloo,345000,43.489429,-80.484985,House
600,985,"7 203 FAIRWAY Road N Kitchener, ON",Centreville Chicopee,174900,43.43295300000001,-80.428986,House
601,986,"150 AVONDALE ST Hamilton, ON",Crown Point West,289500,43.252604999999996,-79.82534799999998,House
602,987,"116 CHARLESWOOD CRES Hamilton, ON",Hamilton,439900,43.177521,-79.80034599999998,House
603,989,"105 KILLARNEY Place London, ON",Stoneybrook,179900,43.038123999999996,-81.226387,House
604,990,"21 OAKHURST CRESCENT Ottawa, ON",Blackburn Hamlet,474000,45.439167,-75.558022,House
605,1557,"#402 - 1250 Bridletowne Circ Toronto, ON",Bridlewood,229900,43.79446400000001,-79.312782,Condo/Apartment
606,1558,"#302 - 28 Empress Ave Toronto, ON",Willowdale,427900,43.769981,-79.411751,Condo/Apartment
607,1559,"#514 - 25 Laidlaw St Toronto, ON",Toronto,749000,43.640353999999995,-79.426109,Condo/Apartment
608,1560,"255 Blythwood Rd Toronto, ON",Midtown Toronto,1750000,43.718014000000004,-79.392662,House
609,1561,"#320 - 801 KING ST W Toronto, ON",Niagara,299900,43.642792,-79.407196,Condo/Apartment
610,1562,"69 GILBERT AVE Toronto, ON",Earlscourt,625000,43.679153,-79.457504,House
611,1563,"#554 - 313 RICHMOND ST E Toronto, ON",Old Town,320000,43.653194,-79.36863699999998,Condo/Apartment
612,1564,"359 ASHDALE AVE Toronto, ON",Leslieville,599900,43.674438,-79.322563,House
613,1565,"#Th 2 - 68 CARR ST Toronto, ON",Downtown,519900,43.64960900000001,-79.403625,Condo/Apartment
614,1566,"7 HARRISON ST Toronto, ON",Little Italy,1098000,43.651443,-79.418373,House
615,1571,"#Ph06 - 21 GRENVILLE ST Toronto, ON",Downtown,479000,43.661792999999996,-79.384506,Condo/Apartment
616,1572,"482 SPADINA RD Toronto, ON",Midtown Toronto,2495000,43.69269600000001,-79.414703,House
617,1573,"#419 - 68 BROADVIEW AVE Toronto, ON",Riverdale,539000,43.657416999999995,-79.349815,Condo/Apartment
618,1574,"785 EASTERN AVE Toronto, ON",Leslieville,699000,43.66098,-79.330055,House
619,1575,"152 MEDLAND ST Toronto, ON",High Park North,995000,43.662804,-79.465935,House
620,1576,"162 ROSEMOUNT Avenue Toronto, ON",Earlscourt,789000,43.676144,-79.443947,House
621,1578,"#Ph62 - 313 RICHMOND ST E Toronto, ON",Old Town,369900,43.653194,-79.36863699999998,Condo/Apartment
622,1579,"737 AVENUE RD Toronto, ON",Midtown Toronto,2399900,43.696071999999994,-79.40477,House
623,1580,"17 BRAD ST Toronto, ON",High Park North,749900,43.663395,-79.45800799999998,House
624,1583,"51 BELLEVILLE ST Toronto, ON",Upper Beaches,799900,43.686946999999996,-79.290451,House
625,1584,"283 SNOWDON AVE Toronto, ON",North Toronto,1480000,43.733105,-79.39321899999999,House
626,1585,"18 NATALIE PL Toronto, ON",Leslieville,799000,43.66235,-79.342567,House
627,1586,"#808 - 110 BLOOR ST W Toronto, ON",Midtown Toronto,1099000,43.669445,-79.39225,Condo/Apartment
628,1588,"80 NEWMARKET AVE Toronto, ON",Woodbine - Lumsden,899900,43.68996,-79.304413,House
629,1589,"34 AUSTIN TERR Toronto, ON",Midtown Toronto,2629000,43.678748999999996,-79.414062,House
630,1590,"#2010 - 151 VILLAGE GREEN SQ Toronto, ON",Agincourt,249888,43.77861400000001,-79.281258,Condo/Apartment
631,1591,"97 CULTRA SQ Toronto, ON",West Hill,599900,43.758068,-79.191078,House
632,1592,"1 PEGASUS TR Toronto, ON",Woburn,649000,43.779556,-79.225761,House
633,1593,"175 FLORENCE AVE Toronto, ON",Lansing,1288000,43.756256,-79.41838800000002,House
634,1594,"6 ALBA PL Toronto, ON",Rexdale,549900,43.731327,-79.60414899999998,House
635,1595,"210 RORY RD Toronto, ON",Maple Leaf,599900,43.720924,-79.483597,House
636,1596,"7 LEHAR CRES Toronto, ON",Hillcrest Village,950000,43.793015000000004,-79.361977,House
637,1597,"124 ASHBOURNE DR Toronto, ON",Eatonville,929000,43.648678000000004,-79.54588299999998,House
638,1598,"79 CHAPMAN AVE Toronto, ON",Woodbine Gardens,679900,43.700798,-79.297798,House
639,1599,"52 FERNANDO RD Toronto, ON",Emery,579900,43.745102,-79.539406,House
640,1600,"42 PARADE SQ Toronto, ON",Highland Creek,734900,43.791893,-79.180328,House
641,1602,"103 FISHERY RD Toronto, ON",Highland Creek,699900,43.790642,-79.176041,House
642,1604,"#5 - 1646 VICTORIA PARK AVE Toronto, ON",Victoria Village,36000,43.730979999999995,-79.30584,Condo/Apartment
643,1605,"#1721 - 5 SHEPPARD AVE E Toronto, ON",Willowdale,419800,43.761501,-79.409882,Condo/Apartment
644,1606,"#P1 -01 - 10 BLOORVIEW PL Toronto, ON",Don Valley Village,798000,43.773495000000004,-79.358963,Condo/Apartment
645,1607,"#32 - 83 IRWIN RD Toronto, ON",Rexdale,349900,43.724998,-79.559105,Condo/Apartment
646,1610,"207 ENNERDALE RD Toronto, ON",Fairbank,1149000,43.693851,-79.452827,House
647,1611,"#1614 - 390 DIXON RD Toronto, ON",Kingsview Village,225000,43.695709,-79.557632,Condo/Apartment
648,1613,"#408 - 3845 LAKE SHORE BLVD W Toronto, ON",Long Branch,349000,43.590603,-79.544258,Condo/Apartment
649,1614,"49 THIRTY SEVENTH ST Toronto, ON",Long Branch,1659888,43.59167100000001,-79.53720899999998,House
650,1615,"103 BAMFORD CRES Toronto, ON",Jane and Finch,647500,43.769268,-79.526489,House
651,1617,"#1809 - 265 RIDLEY BLVD Toronto, ON",Nortown,595000,43.739478999999996,-79.42408,Condo/Apartment
652,1618,"17 A HOBDEN PL Toronto, ON",Richview,519000,43.684471,-79.565704,House
653,1619,"39 COBALT ST Toronto, ON",Mount Dennis,499000,43.692429,-79.498917,House
654,1620,"22 TOULON RD Toronto, ON",Woburn,599999,43.761688,-79.221779,House
655,1622,"11 ELLINGTON DR Toronto, ON",Wexford,649000,43.747566,-79.290649,House
656,1623,"137 CONN SMYTHE DR Toronto, ON",Scarborough Village,479000,43.743988,-79.223457,House
657,1624,"41 ARCHIBALD MEWS Toronto, ON",Bendale,649900,43.753349,-79.264595,House
658,1626,"20 HEAVITREE DR Toronto, ON",Downsview,519000,43.726231,-79.514557,House
659,1627,"1 B BOWSPRIT AVE Toronto, ON",Humber Heights - Westmount,699000,43.697193,-79.52858,House
660,1628,"33 MUNRO BLVD Toronto, ON",St. Andrew - Windfields,2498000,43.745895000000004,-79.39791899999999,House
661,1629,"30 BUSHEY AVE Toronto, ON",Rockcliffe - Smythe,560000,43.6833,-79.484657,House
662,1630,"#17 - 671 HUNTINGWOOD DR Toronto, ON",Tam O'Shanter,499900,43.7897,-79.30526,Condo/Apartment
663,1631,"#335 - 4750 YONGE ST Toronto, ON",Toronto,299000,43.761047,-79.410904,Condo/Apartment
664,1632,"#279 - 209 FORT YORK BLVD Toronto, ON",Niagara,539900,43.636963,-79.404671,Condo/Apartment
665,1634,"#1007 - 32 DAVENPORT RD Toronto, ON",Midtown Toronto,899000,43.673171999999994,-79.389687,Condo/Apartment
666,1636,"#6802 - 10 YORK ST Toronto, ON",Downtown,2340000,43.641247,-79.380821,Condo/Apartment
667,1637,"#605 - 18 HOLMES AVE Toronto, ON",Willowdale,457000,43.778434999999995,-79.41333,Condo/Apartment
668,1638,"#1908 - 23 LORRAINE DR Toronto, ON",Willowdale,419900,43.778015,-79.416656,Condo/Apartment
669,1639,"#1904 - 1 MARKET ST Toronto, ON",Downtown,695000,43.646873,-79.371078,Condo/Apartment
670,1654,"#18 - 385 The East Mall Toronto, ON",Islington - City Centre West,589900,43.645439,-79.558334,Condo/Apartment
671,1655,"#514 - 1403 Royal York Rd Toronto, ON",Humber Heights - Westmount,439900,43.682999,-79.525726,Condo/Apartment
672,1656,"#2303 - 820 Burnhamthorpe Rd Rd Toronto, ON",Markland Wood,415900,43.639656,-79.58270999999998,Condo/Apartment
673,1657,"#904 - 1 Valhalla Inn Rd Toronto, ON",Islington - City Centre West,345000,43.640285,-79.559464,Condo/Apartment
674,1658,"#2106 - 1 Valhalla Inn Rd Toronto, ON",Islington - City Centre West,289900,43.640285,-79.559464,Condo/Apartment
675,1659,"#708 - 7 Michael Power Pl Toronto, ON",Islington - City Centre West,359900,43.644325,-79.529732,Condo/Apartment
676,1660,"#906 - 235 Sherway Gardens Rd Toronto, ON",Islington - City Centre West,389900,43.609261,-79.558998,Condo/Apartment
677,1661,"#801 - 627 The West Mall Dr Toronto, ON",Eringate - Centennial - West Deane,344888,43.655231,-79.570572,Condo/Apartment
678,1662,"#3 - 15 Valhalla Inn Rd Toronto, ON",Islington - City Centre West,549900,43.640156,-79.558861,Condo/Apartment
679,1663,"#2408 - 235 Sherway Gardens Rd Toronto, ON",Islington - City Centre West,309900,43.609261,-79.558998,Condo/Apartment
680,1664,"#1520 - 100 Harrison Garden Blvd Toronto, ON",Willowdale,449800,43.757233,-79.404686,Condo/Apartment
681,1665,"#1217 - 155 YORKVILLE AVE Toronto, ON",Midtown Toronto,529000,43.670319,-79.394432,Condo/Apartment
682,1666,"#705 - 100 WESTERN BATTERY RD Toronto, ON",Niagara,389900,43.63966,-79.41577099999998,Condo/Apartment
683,1667,"#1102 - 100 WESTERN BATTERY RD Toronto, ON",Niagara,379900,43.63966,-79.41577099999998,Condo/Apartment
684,1668,"#603 - 141 ROEHAMPTON AVE Toronto, ON",Midtown Toronto,789800,43.708694,-79.394318,Condo/Apartment
685,1669,"#1205 - 8 THE ESPLANADE AVE Toronto, ON",Downtown,989000,43.64613,-79.375778,Condo/Apartment
686,1670,"#1611 - 125 WESTERN BATTERY RD Toronto, ON",Niagara,449900,43.639946,-79.416664,Condo/Apartment
687,1671,"#225 - 380 MACPHERSON AVE Toronto, ON",Midtown Toronto,359000,43.676369,-79.405739,Condo/Apartment
688,1672,"#415 - 707 DOVERCOURT RD Toronto, ON",Dufferin Grove,259000,43.660225,-79.428726,Condo/Apartment
689,1673,"#314 - 101 ERSKINE AVE Toronto, ON",Mount Pleasant West,467000,43.711609,-79.3955,Condo/Apartment
690,1674,"#1105 - 500 ST CLAIR AVE W Toronto, ON",Midtown Toronto,599900,43.683372,-79.418686,Condo/Apartment
691,1675,"#208 - 9 SPADINA AVE Toronto, ON",Entertainment District,329900,43.640246999999995,-79.392395,Condo/Apartment
692,1676,"#506 - 9 SPADINA AVE Toronto, ON",Entertainment District,318000,43.640246999999995,-79.392395,Condo/Apartment
693,1677,"#3011 - 155 YORKVILLE AVE Toronto, ON",Midtown Toronto,444900,43.670319,-79.394432,Condo/Apartment
694,1678,"#811 - 1 MICHAEL POWER PL Toronto, ON",Islington - City Centre West,420000,43.643925,-79.528885,Condo/Apartment
695,1679,"#Ph602 - 25 EARLINGTON AVE Toronto, ON",The Kingsway,649900,43.661209,-79.508301,Condo/Apartment
696,1680,"#1406 - 551 THE WEST MALL RD Toronto, ON",Etobicoke West Mall,299000,43.651909,-79.569687,Condo/Apartment
697,1681,"#104 - 50 SCARBOROUGH GOLF CLUB RD Toronto, ON",Scarborough Village,249900,43.744296999999996,-79.209541,Condo/Apartment
698,1682,"#1409 - 10 PARKWAY FOREST DR Toronto, ON",Henry Farm,285000,43.769733,-79.34548199999998,Condo/Apartment
699,1683,"#3108 - 3303 DON MILLS RD Toronto, ON",Don Valley Village,549000,43.791603,-79.354248,Condo/Apartment
700,1684,"#1405 - 100 HARRISON GARDEN BLVD Toronto, ON",Willowdale,400900,43.757233,-79.404686,Condo/Apartment
701,1685,"#606 - 96 FIFESHIRE RD Toronto, ON",St. Andrew - Windfields,529900,43.76083,-79.38720699999998,Condo/Apartment
702,1686,"#3 - 80 BELL ESTATE RD E Toronto, ON",Clairlea - Birchmount,779000,43.705589,-79.275879,Condo/Apartment
703,1687,"#801 - 18 WILLIAM CARSON CRES Toronto, ON",York Mills,354000,43.749531,-79.407188,Condo/Apartment
704,1688,"#1509 - 2111 LAKE SHORE BLVD W Toronto, ON",Mimico,545000,43.62898300000001,-79.477852,Condo/Apartment
705,1689,"#2324 - 135 VILLAGE GREEN SQ Toronto, ON",Agincourt,378000,43.777565,-79.281006,Condo/Apartment
706,1690,"#907 - 151 VILLAGE GREEN SQ Toronto, ON",Agincourt,383000,43.77861400000001,-79.281258,Condo/Apartment
707,1691,"#1511 - 30 HARRISON GARDEN BLVD Toronto, ON",Willowdale,269900,43.756371,-79.408394,Condo/Apartment
708,1692,"#2305 - 820 BURNHAMTHORPE RD Toronto, ON",Markland Wood,424000,43.639656,-79.58270999999998,Condo/Apartment
709,1693,"#Block - 6443 KINGSTON RD Toronto, ON",Highland Creek,1174900,43.791302,-79.158119,Condo/Apartment
710,1694,"#2007 - 16 BROOKERS LANE Toronto, ON",Humber Bay Shores,679900,43.62696500000001,-79.47848499999998,Condo/Apartment
711,1695,"#1505 - 133 TORRESDALE AVE Toronto, ON",Newtonbrook,354990,43.77861400000001,-79.452042,Condo/Apartment
712,1696,"#308 - 28 HARRISON GARDEN BLVD Toronto, ON",Willowdale,368800,43.756668,-79.40862299999998,Condo/Apartment
713,1697,"#2009 - 5 VALHALLA INN RD Toronto, ON",Islington - City Centre West,259999,43.640293,-79.559761,Condo/Apartment
714,1698,"#1109 - 5 SHADY GOLFWAY GLWY Toronto, ON",Toronto,309900,43.653225,-79.383186,Condo/Apartment
715,1699,"#808 - 3380 EGLINTON AVE E Toronto, ON",Scarborough Village,209900,43.744811999999996,-79.214561,Condo/Apartment
716,1700,"#1801 - 16 BROOKERS LANE Toronto, ON",Humber Bay Shores,279999,43.62696500000001,-79.47848499999998,Condo/Apartment
717,1701,"235 Sherway Gardens Road Toronto, ON",Islington - City Centre West,309900,43.609261,-79.558998,House
718,1702,"#710 - 100 HARRISON GARDEN BLVD Toronto, ON",Willowdale,399900,43.757233,-79.404686,Condo/Apartment
719,1703,"#1534 - 120 HARRISON GARDEN BLVD Toronto, ON",Willowdale,444000,43.757988,-79.403625,Condo/Apartment
720,1704,"#72 - 3 CENTENNIAL PARK RD Toronto, ON",Eringate - Centennial - West Deane,374900,43.651314,-79.58139,Condo/Apartment
721,1705,"#1508 - 50 BRIAN HARRISON WAY Toronto, ON",Bendale,286000,43.773582,-79.25891899999998,Condo/Apartment
722,1706,"#2402 - 2220 LAKE SHORE BLVD W Toronto, ON",Mimico,409900,43.62273,-79.483192,Condo/Apartment
723,1707,"#1109 - 40 BAY MILLS BLVD Toronto, ON",Tam O'Shanter,228000,43.780746,-79.30529,Condo/Apartment
724,1708,"#120 - 50 SCARBOROUGH GOLF CLUB RD Toronto, ON",Scarborough Village,299900,43.744296999999996,-79.209541,Condo/Apartment
725,1709,"#2402 - 70 FOREST MANOR RD Toronto, ON",Henry Farm,550000,43.774895,-79.345955,Condo/Apartment
726,1710,"#808 - 2 COVINGTON RD Toronto, ON",Englemount - Lawrence,539000,43.72111500000001,-79.430847,Condo/Apartment
727,1711,"# 2905 - 70 TOWN CENTRE CT Scarborough, ON",Bendale,270000,43.77368900000001,-79.255424,Condo/Apartment
728,1712,"#209 - 2240 LAKE SHORE BLVD W Toronto, ON",Mimico,269900,43.621063,-79.483322,Condo/Apartment
729,1713,"#523 - 650 SHEPPARD AVE E Toronto, ON",Bayview Village,324800,43.768475,-79.38160699999997,Condo/Apartment
730,1714,"#3107 -3- 4438 SHEPPARD AVE E Toronto, ON",Agincourt,970000,43.788311,-79.26808199999998,Condo/Apartment
731,1715,"#1506 A - 710 HUMBERWOOD BLVD Toronto, ON",Rexdale,289900,43.724556,-79.616455,Condo/Apartment
732,1716,"#Ph01 - 1070 SHEPPARD AVE W Toronto, ON",York University Heights,519000,43.750637,-79.465103,Condo/Apartment
733,1717,"#Lph05 - 797 DON MILLS RD Toronto, ON",Flemingdon Park,354000,43.719494,-79.337746,Condo/Apartment
734,1718,"#2004 - 4101 SHEPPARD AVE E Toronto, ON",Agincourt,268000,43.78344,-79.283562,Condo/Apartment
735,1719,"#301 - 60 PAVANE LINKWAY WAY Toronto, ON",Flemingdon Park,299900,43.711529,-79.32289899999998,Condo/Apartment
736,2627,"174 Hawthorne Avenue Ottawa, ON",Old Ottawa East,509900,45.414004999999996,-75.676537,House
737,2631,"1791 Maple Grove Road Kanata, ON",Stittsville,265000,45.288253999999995,-75.921722,House
738,2633,"708 Clearbrook Drive Ottawa, ON",New Barrhaven,544900,45.273212,-75.725487,House
739,2634,"2112 Benjamin Avenue Ottawa, ON",Carlingwood West - Glabar Park - McKellar Heights,429000,45.364917999999996,-75.764206,House
740,2637,"#B - 8 Meadowlands Drive Ottawa, ON",Crestview - Meadowlands,615000,45.350327,-75.73442800000002,Condo/Apartment
741,2638,"#A - 8 Meadowlands Drive Ottawa, ON",Crestview - Meadowlands,599000,45.350327,-75.73442800000002,Condo/Apartment
742,2640,"#1202 - 90 Landry Street Ottawa, ON",Vanier,459000,45.437595,-75.671364,Condo/Apartment
743,2641,"8 Metropole Private Ottawa, ON",Westboro Beach,500000,45.398041,-75.749512,House
744,2643,"565 Erinwoods Circle Ottawa, ON",New Barrhaven,624900,45.252438,-75.716637,House
745,2644,"#606 - 95 Bronson Avenue Ottawa, ON",Byward Market - Parliament Hill,630000,45.416809,-75.708519,Condo/Apartment
746,2646,"730 Bowercrest Crescent Gloucester, ON",Ottawa,349000,45.281384,-75.677872,House
747,2648,"110 Springfield Road Ottawa, ON",New Edinburgh,579500,45.44236400000001,-75.677185,House
748,2650,"316 Lafontaine Avenue Ottawa, ON",Vanier,399900,45.436268,-75.65514399999998,House
749,2651,"#2004 - 70 Landry Street Ottawa, ON",Vanier,299900,45.437824,-75.67196700000002,Condo/Apartment
750,2652,"1890 La Chapelle Street Ottawa, ON",Orléans,352000,45.444027,-75.534828,House
751,2653,"6073 Jardin Des Treflieres Gardens Ottawa, ON",Orléans,399900,45.448956,-75.539833,House
752,2654,"144 Destiny Private Ottawa, ON",Orléans,389900,45.47394600000001,-75.45766400000002,House
753,2655,"#705 - 470 Laurier Avenue Ottawa, ON",Byward Market - Parliament Hill,249900,45.416191,-75.70416999999998,Condo/Apartment
754,2657,"2019 Featherston Drive Ottawa, ON",Elmvale - Eastway - Riverview - Riverview Park West,529900,45.386192,-75.63580300000002,House
755,2658,"2838 Grandeur Avenue Ottawa, ON",Crystal Bay - Lakeview Park - Britannia Village,819900,45.362140999999994,-75.8022,House
756,2661,"181 Whispering Winds Way Ottawa, ON",Orléans,479500,45.429375,-75.527229,House
757,2664,"29 Ballymore Avenue Ottawa, ON",Greenboro East,444900,45.371173999999996,-75.627319,House
758,2669,"523 Tillbury Avenue Ottawa, ON",Carlingwood - McKellar Park - Laurentien View,899900,45.379673,-75.756599,House
759,2670,"93 Kennevale Drive Ottawa, ON",Barrhaven West - Old Barrhaven,329900,45.267208000000004,-75.768303,House
760,2675,"15 Bartley Crescent Nepean, ON",Barrhaven West - Old Barrhaven,434000,45.272296999999995,-75.748703,House
761,2676,"9 Marier Road Ottawa, ON",Vanier,509000,45.441936,-75.670975,House
762,2677,"290 Paseo Private Ottawa, ON",Centrepointe,279900,45.342701,-75.764977,House
763,2678,"#PH8 - 150 Caroline Avenue Ottawa, ON",Island Park,459000,45.399307,-75.734589,Condo/Apartment
764,2679,"301 Osgoode Street Ottawa, ON",Sandy Hill,749900,45.425793,-75.676636,House
765,2680,"#2 - 70 Prestige Circle Ottawa, ON",Orléans,269900,45.491394,-75.495026,Condo/Apartment
766,2681,"3 Pentry Lane Ottawa, ON",Old Ottawa South,490000,45.389938,-75.68399000000002,House
767,2682,"41 Courtney Road Kanata, ON",Kanata,329900,45.291538,-75.87384,House
768,2683,"504 Khamsin Street Stittsville, ON",Stittsville,359900,45.287533,-75.914436,House
769,2684,"417 Laurier Avenue Ottawa, ON",Sandy Hill,899000,45.428748999999996,-75.675331,House
770,2685,"263 Carillon Street Ottawa, ON",Vanier,399000,45.438010999999996,-75.661713,House
771,2686,"#1201 - 20 The Driveway Drive Ottawa, ON",Centretown,609000,45.419907,-75.684776,Condo/Apartment
772,2691,"#815 - 1599 Lassiter Terrace Ottawa, ON",Beacon Hill North,189900,45.450611,-75.597992,Condo/Apartment
773,2692,"385 Dominion Avenue Ottawa, ON",Westboro,636000,45.390965,-75.758957,House
774,2702,"7 Dorland Crescent Ottawa, ON",Bells Corners East,439900,45.321457,-75.81959499999998,House
775,2704,"1426 Bourcier Drive Ottawa, ON",Orléans,499900,45.474739,-75.50795699999998,House
776,2705,"41 Langevin Avenue Ottawa, ON",Lindenlea - New Edinburgh,975000,45.442054999999996,-75.674759,House
777,2706,"33 Cloverloft Court Ottawa, ON",Stittsville,134900,45.278121999999996,-75.915527,House
778,2707,"#G - 1462 Heatherington Road Ottawa, ON",Ledbury - Heron Gate - Ridgemont - Elmwood,164900,45.374439,-75.65074200000002,Condo/Apartment
779,2708,"138 Gatespark Private Ottawa, ON",Kanata,340000,45.316639,-75.924622,House
780,2709,"1227 WELLINGTON STREET UNIT#403 Ottawa, ON",Byward Market - Parliament Hill,329900,45.423747999999996,-75.69742600000002,Condo/Apartment
781,2710,"200 RIDEAU STREET UNIT#1704 Ottawa, ON",Byward Market - Parliament Hill,649900,45.427555,-75.687782,Condo/Apartment
782,2711,"20 DUNVEGAN ROAD Ottawa, ON",Rockcliffe - Manor Park,599000,45.45393,-75.661484,House
783,2712,"429 KENT STREET UNIT#116 Ottawa, ON",Centretown,255000,45.411434,-75.695801,Condo/Apartment
784,2713,"505 ST LAURENT BOULEVARD UNIT#615 Ottawa, ON",Rockcliffe - Manor Park,199900,45.443871,-75.64827,Condo/Apartment
785,2715,"1222 CASTLE HILL CRESCENT Ottawa, ON",Braemar Park - Bel Air Heights - Copeland Park,439900,45.364605,-75.74678,House
786,2716,"496 NEWMAN AVENUE Ottawa, ON",Overbrook,519900,45.427731,-75.645607,House
787,2718,"900 DYNES ROAD UNIT#1106 Ottawa, ON",Carleton Heights - Rideauview,194900,45.369510999999996,-75.70440699999997,Condo/Apartment
788,2719,"32 KINGS LANDING PRIVATE Ottawa, ON",Ottawa,689000,45.417107,-75.67926800000002,House
789,2720,"26 STATE STREET Ottawa, ON",Civic Hospital - Experimental Farm - Central Park,560000,45.368557,-75.738876,House
790,2721,"1591 DIXIE STREET Ottawa, ON",Elmvale - Eastway - Riverview - Riverview Park West,485000,45.406857,-75.63711500000002,House
791,2723,"320 MCLEOD STREET UNIT#703 Ottawa, ON",Centretown,489900,45.412193,-75.691254,Condo/Apartment
792,2724,"690 ROANOKE STREET Ottawa, ON",Carson Grove - Carson Meadows,305000,45.443573,-75.628326,House
793,2725,"3322 UPLANDS DRIVE UNIT#43 Ottawa, ON",Hunt Club East - Western Community,209900,45.34919,-75.67484300000002,Condo/Apartment
794,2729,"244 CHARLOTTE STREET UNIT#2 Ottawa, ON",Sandy Hill,289900,45.430336,-75.674461,Condo/Apartment
795,2730,"28 SWAIN AVENUE Ottawa, ON",Hunt Club,439900,45.369469,-75.611755,House
796,2732,"268 PRESLAND ROAD UNIT#5 Ottawa, ON",Overbrook,182000,45.423138,-75.65454100000002,Condo/Apartment
797,2733,"1045 MORRISON DRIVE UNIT#158 Ottawa, ON",Qualicum - Redwood Park,209900,45.345119,-75.791946,Condo/Apartment
798,2734,"205 IVY CRESCENT Ottawa, ON",New Edinburgh,869000,45.440498,-75.67905400000002,House
799,2737,"319 SPENCER STREET Ottawa, ON",Island Park,469900,45.398674,-75.742767,House
800,2739,"415 WILBROD STREET Ottawa, ON",Sandy Hill,1675000,45.429314,-75.67669699999998,House
801,2740,"2625 REGINA STREET UNIT#607 Ottawa, ON",Woodroffe - Lincoln Heights,174900,45.365734,-75.79136700000002,Condo/Apartment
802,2741,"541 BRUNEL STREET Ottawa, ON",Ottawa,274000,45.448338,-75.63140899999998,House
803,2742,"60 SENECA STREET Ottawa, ON",Old Ottawa South,480000,45.39064000000001,-75.689415,House
804,2743,"69 AYLMER AVENUE Ottawa, ON",Old Ottawa South,599999,45.394081,-75.688263,House
805,2744,"772 CHAPMAN MILLS DRIVE UNIT#A Ottawa, ON",New Barrhaven,209900,45.268684,-75.734024,Condo/Apartment
806,2745,"191 PORTRUSH AVENUE Ottawa, ON",New Barrhaven,339000,45.275246,-75.740662,House
807,2746,"2760 CAROUSEL CRESCENT UNIT#1011 Ottawa, ON",Emerald Woods - Sawmill Creek,185000,45.35041,-75.64325699999998,Condo/Apartment
808,2747,"33 WILDPINE COURT Ottawa, ON",Stittsville,289900,45.265881,-75.926804,House
809,2748,"296 DALEHURST DRIVE UNIT#D Ottawa, ON",Tanglewood,209000,45.333309,-75.749748,Condo/Apartment
810,2749,"3691 ALBION ROAD UNIT#58 Ottawa, ON",Blossom Park - Blossom Park West - Sawmill Creek/ Timbermill,199900,45.348919,-75.637856,Condo/Apartment
811,2750,"3211 BANNON WAY Ottawa, ON",Blossom Park - Blossom Park West - Sawmill Creek/ Timbermill,159900,45.344788,-75.627975,House
812,2751,"307 CENTERRA COURT Ottawa, ON",New Barrhaven,545000,45.242943,-75.729378,House
813,2752,"3663 ALBION ROAD Ottawa, ON",Blossom Park - Blossom Park West - Sawmill Creek/ Timbermill,599000,45.349552,-75.640114,House
814,2754,"1276 HOWIE ROAD Ottawa, ON",Carp,159000,45.281017,-76.071915,House
815,2757,"#15 - 2112 Queen St Toronto, ON",The Beach,569000,43.67145900000001,-79.295059,Condo/Apartment
816,2758,"1 Currie Ave Toronto, ON",East Danforth,689900,43.68047,-79.321823,House
817,2759,"#3010 - 12 York St Toronto, ON",Downtown,499000,43.641632,-79.38205,Condo/Apartment
818,2760,"80 Martindale Rd Toronto, ON",Cliffcrest,699900,43.734875,-79.22728000000002,House
819,2761,"61 Rory Rd Toronto, ON",Maple Leaf,799000,43.720276,-79.48490100000002,House
820,2762,"26 Angora St Toronto, ON",Woburn,525000,43.758507,-79.21279100000002,House
821,2763,"35 Strathcona Ave Toronto, ON",Riverdale,899000,43.675503000000006,-79.34429200000002,House
822,2764,"39 Belleville St Toronto, ON",Upper Beaches,899900,43.686844,-79.29077099999998,House
823,2765,"#92 - 100 Burrows Hall Blvd Toronto, ON",Malvern,379900,43.792198,-79.232147,Condo/Apartment
824,2766,"592 The Queensway Toronto, ON",The Queensway,649900,43.628426,-79.49398000000002,House
825,2767,"49 Caracas Rd Toronto, ON",Bayview Village,1050000,43.767426,-79.37751,House
826,2768,"##1 - 108 Redpath Ave Toronto, ON",Midtown Toronto,549000,43.707161,-79.393127,Condo/Apartment
827,2769,"#S608 - 455 Front St Toronto, ON",Downtown,374900,43.652714,-79.3563,Condo/Apartment
828,2770,"29 Bromton Dr Toronto, ON",Bendale,499900,43.765526,-79.253128,House
829,2771,"135 King St Toronto, ON",Downtown,748888,43.650040000000004,-79.373352,House
830,2772,"#1006 - 2 Anndale Dr Toronto, ON",Willowdale,419900,43.760464,-79.410248,Condo/Apartment
831,2779,"2043 SPRINGDALE RD Oakville, ON",Westmount,868800,43.44273,-79.75275400000002,House
832,2780,"#510 - 25 FAIRVIEW RD W Mississauga, ON",Mississauga,209900,43.587418,-79.62846400000002,Condo/Apartment
833,2781,"2768 WESTBURY CRT Mississauga, ON",Erin Mills,684900,43.563697999999995,-79.730011,House
834,2782,"2150 BURNHAMTHORPE RD W Mississauga, ON",Erin Mills,129000,43.543655,-79.68306,House
835,2783,"609 Driftcurrent Drive Mississauga, ON",Mississauga,950000,43.622925,-79.646111,House
836,2784,"7554 LOCKINGTON CRES Mississauga, ON",Malton,649900,43.727546999999994,-79.643188,House
837,2785,"3342 GRECHEN RD Mississauga, ON",Mississauga,575000,43.564972,-79.650948,House
838,2786,"1130 SYLVANIA DR Mississauga, ON",Dixie,629900,43.609303000000004,-79.597534,House
839,2787,"738 GREENORE RD Mississauga, ON",Mississauga,729900,43.606991,-79.615433,House
840,2788,"6613 JAZZY MEWS Mississauga, ON",Meadowvale Village,609900,43.61910200000001,-79.714088,House
841,2789,"1591 SAMUELSON CIRC Mississauga, ON",Meadowvale Village,819000,43.622822,-79.748672,House
842,2790,"2393 CHILSWORTHY AVE Mississauga, ON",Cooksville,825000,43.563198,-79.62451899999998,House
843,2791,"1607 Spring Road Mississauga, ON",Clarkson,4288000,43.524623999999996,-79.625351,House
844,2792,"609 DRIFTCURRENT DR Mississauga, ON",Mississauga,950000,43.622925,-79.646111,House
845,2793,"2180 DIXIE RD Mississauga, ON",Lakeview,1049700,43.601135,-79.572868,House
846,2794,"#83 - 6797 FORMENTERA AVE Mississauga, ON",Mississauga,319900,43.585991,-79.762466,Condo/Apartment
847,2795,"#111 - 55 BRISTOL RD E Mississauga, ON",Mississauga,249800,43.616287,-79.664009,Condo/Apartment
848,2797,"5353 GLEN ERIN DR Mississauga, ON",Erin Mills,1298000,43.561249,-79.72094,House
849,2799,"#1008 - 20 MISSISSAUGA VALL BLVD Mississauga, ON",Mississauga,328888,43.590103000000006,-79.627022,Condo/Apartment
850,2800,"##11 - 242 John Garland Blvd Toronto, ON",Rexdale,195900,43.73354000000001,-79.592949,Condo/Apartment
851,2801,"#108 - 35 HAYDEN ST Toronto, ON",Downtown,649900,43.669609,-79.384773,Condo/Apartment
852,2802,"435 MAYBANK AVE Toronto, ON",Harwood,699400,43.677654,-79.473663,House
853,2803,"#562 - 209 FORT YORK BLVD S Toronto, ON",Niagara,349000,43.636963,-79.404671,Condo/Apartment
854,2804,"39 FAIRLEIGH CRES Toronto, ON",Midtown Toronto,1299000,43.700653,-79.439201,House
855,2811,"1805 SUMAC WY London, ON",River Bend,599900,42.964138,-81.358253,House
856,2812,"57 - 490 THIRD Street London, ON",Argyle,123000,43.005676,-81.186676,House
857,2813,"1506 MCLARENWOOD TR London, ON",East London,209900,42.987186,-81.185242,House
858,2814,"1004 GUILDWOOD BL London, ON",Oakridge,389000,42.978428,-81.313164,House
859,2815,"183 LANGARTH Street East London, ON",South London,549900,42.965721,-81.250999,House
860,2816,"301 WOODROW Place Waterloo, ON",Laurelwood,589000,43.46921500000001,-80.583534,House
861,2817,"5 Michelle Court Kitchener, ON",Highland West,369900,43.425808,-80.54633299999998,House
862,2818,"114 Roebuck Dr Toronto, ON",Kennedy Park,628000,43.726383,-79.270432,House
863,2819,"3369 Weston Rd Toronto, ON",Emery,569900,43.745125,-79.54053499999998,House
864,2827,"41 DONALD BELL DR Hamilton, ON",Hamilton,389900,43.120533,-79.807396,House
865,2830,"#110 - 86 JOYMAR DR Mississauga, ON",Streetsville,529900,43.578716,-79.71743000000002,Condo/Apartment
866,2831,"825 Cavan Crt Oshawa, ON",Vanier,329900,43.887722,-78.892616,House
867,2832,"1516 Pennel Dr Oshawa, ON",Taunton,475000,43.944332,-78.856514,House
868,2833,"61 Don Head Village Blvd Richmond Hill, ON",Richmond Hill,739000,43.864326,-79.45070600000003,House
869,2834,"25 Brower Ave Richmond Hill, ON",Richmond Hill,1199888,43.925968,-79.45578,House
870,2835,"10165 Yonge St Richmond Hill, ON",Richmond Hill,89000,43.87537800000001,-79.437729,House
871,2836,"#41 - 9130 Bathurst Ave Vaughan, ON",Maple,999990,43.845721999999995,-79.45845,Condo/Apartment
872,2837,"285 Gells Rd Richmond Hill, ON",Richmond Hill,999900,43.892128,-79.428207,House
873,2838,"64 Lebovic Dr Richmond Hill, ON",Richmond Hill,739000,43.93924000000001,-79.442604,House
874,2839,"61 Sun Valley Dr Richmond Hill, ON",Richmond Hill,1190000,43.887221999999994,-79.39534,House
875,2840,"46 Falling River Dr Richmond Hill, ON",Richmond Hill,988000,43.908413,-79.43763,House
876,2841,"240 Avenue Rd Richmond Hill, ON",Richmond Hill,668000,43.856258000000004,-79.443405,House
877,2842,"145 Kimono Cres Richmond Hill, ON",Richmond Hill,888000,43.878567,-79.403717,House
878,2843,"17 Alyssum Crt Richmond Hill, ON",Richmond Hill,1249900,43.953888,-79.44149,House
879,2844,"62 Bush Ridges Ave Richmond Hill, ON",Richmond Hill,1199000,43.916740000000004,-79.43024399999999,House
880,2845,"372 Balkan Rd Richmond Hill, ON",Richmond Hill,1199000,43.882725,-79.42205,House
881,2846,"29 Camellia Dr Richmond Hill, ON",Bayview Glen,1199900,43.84557,-79.413292,House
882,2847,"37 Bingham St Richmond Hill, ON",Richmond Hill,888888,43.865139,-79.442482,House
883,2848,"53 Steepleview Cres Richmond Hill, ON",Richmond Hill,668000,43.866974,-79.443512,House
884,2849,"56 Selkirk Dr Richmond Hill, ON",Bayview Glen,895800,43.846828,-79.423927,House
885,2850,"187 Jefferson Forest Dr Richmond Hill, ON",Richmond Hill,1420000,43.915451000000004,-79.433235,House
886,2851,"32 Selleck Drive Richmond Hill, ON",Richmond Hill,1695000,43.93545200000001,-79.46936,House
887,2852,"61 Catalina Cres Richmond Hill, ON",Richmond Hill,1649000,43.890335,-79.416885,House
888,2853,"121 Devonsleigh Blvd Richmond Hill, ON",Richmond Hill,1380000,43.90464,-79.435066,House
889,2854,"#514 - 33 Weldrick Rd Richmond Hill, ON",Richmond Hill,579888,43.8605,-79.433083,Condo/Apartment
890,2855,"#906 - 9088 Yonge St Richmond Hill, ON",Richmond Hill,335000,43.848576,-79.432541,Condo/Apartment
891,2856,"88 Maple Grove Ave Richmond Hill, ON",Richmond Hill,3180000,43.945827,-79.468925,House
892,2857,"22 Ellesmere St Richmond Hill, ON",Bayview Glen,810000,43.847469,-79.430588,House
893,2858,"170 ELDER ST Toronto, ON",Bathurst Manor,998000,43.758739,-79.45270500000002,House
894,2861,"104 Homedale Dr Toronto, ON",Milliken,699900,43.811809999999994,-79.282883,House
895,2862,"14 Saunders Rd Toronto, ON",Scarborough Village,698000,43.748539,-79.208725,House
896,2863,"99 Red River Cres Toronto, ON",Rouge,465000,43.80365,-79.17235600000002,House
897,2864,"2 Moraine Hill Dr Toronto, ON",Tam O'Shanter,788888,43.774623999999996,-79.298141,House
898,2865,"10 Sudbury Hall Dr Toronto, ON",Rouge,599000,43.800362,-79.17734499999997,House
899,2875,"2185 HAMELIN CRESCENT Ottawa, ON",Greenbelt,429900,45.454403000000006,-75.591789,House
900,2876,"619 RODFAM Windsor, ON",Roseland,199900,42.241692,-83.002701,House
901,2877,"6 GERALD Crescent London, ON",Glen Cairn,174900,42.966042,-81.200066,House
902,2878,"7467 Monastery Drive Niagara Falls, ON",Niagara Falls,344900,43.120461,-79.123039,House
903,2879,"286 Whitmore Drive Waterloo, ON",Waterloo,629900,43.496555,-80.509979,House
904,2880,"45 Ellis Crescent N Waterloo, ON",Waterloo,275000,43.472687,-80.50795,House
905,2881,"233 Rodney Street Waterloo, ON",Waterloo,299000,43.467121,-80.502708,House
906,2882,"E31 110 ACTIVA Avenue Kitchener, ON",Laurentian West,339900,43.408806,-80.51037600000002,House
907,2883,"149 ACTIVA Avenue Kitchener, ON",Laurentian West,319900,43.40818,-80.511421,House
908,2884,"48 Evans Street Hamilton, ON",Central Hamilton,299000,43.25713,-79.85566700000003,House
909,2885,"191 SHERMAN AVE N Hamilton, ON",Gibson,229000,43.257683,-79.83577700000002,House
910,2886,"11 Bronte Road Oakville, ON",Bronte,1950,43.394123,-79.708611,House
911,2888,"#115 - 5980 Whitehorn Ave Mississauga, ON",East Credit,519900,43.598038,-79.708839,Condo/Apartment
912,2889,"6271 Snowflake Lane Mississauga, ON",Mississauga,729900,43.568523,-79.758461,House
913,2890,"3910 MILKWOOD CRES Mississauga, ON",Mississauga,570000,43.580254,-79.79258,House
914,2891,"5188 ANGEL STONE DR Mississauga, ON",Erin Mills,699900,43.550816,-79.723541,House
915,2892,"1331 SCUGOG AVE Oshawa, ON",Lakeview,489900,43.863234999999996,-78.844627,House
916,2893,"771 CHAMBERLAIN Street Peterborough, ON",Peterborough,199900,44.289719,-78.338554,House
917,2894,"246 TOBIN Court Peterborough, ON",Peterborough,324900,44.332214,-78.331535,House
918,2895,"146 JAMES Street Peterborough, ON",Peterborough,299900,44.302681,-78.305908,House
919,2896,"15 PACIFIC RIM CRT Richmond Hill, ON",Richmond Hill,599000,43.910571999999995,-79.472374,House
920,2897,"9 Red River Cres Toronto, ON",Rouge,439000,43.802834000000004,-79.172585,House
921,2898,"82 PITT AVE Toronto, ON",Clairlea - Birchmount,799900,43.704266,-79.293152,House
922,2899,"227 REINER Road Toronto, ON",Wilson Heights,1399990,43.748855999999996,-79.453499,House
923,2900,"# 74 - 20 BRIMWOOD BLVD Toronto, ON",Milliken,429000,43.811077000000004,-79.279678,Condo/Apartment
924,2901,"80 VALLEY STREAM DR Toronto, ON",Toronto,688000,43.820442,-79.26374100000002,House
925,2904,"93 Langstrom Crescent Ottawa, ON",Hunt Club,305000,45.37384,-75.62155899999998,House
926,2905,"310 Hoylake Crescent Orleans, ON",Orléans,389900,45.468841999999995,-75.503159,House
927,2906,"489 LIBERTY Windsor, ON",South Windsor,304900,42.264938,-83.010735,House
928,2907,"267 NORTHCREST Place Waterloo, ON",Waterloo,350000,43.482021,-80.513992,House
929,2908,"48 Evans St Hamilton, ON",Central Hamilton,299000,43.25713,-79.85566700000003,House
930,2909,"99 English Oak Dr Richmond Hill, ON",Richmond Hill,788000,43.940819,-79.442017,House
931,2910,"108 Arten Ave Richmond Hill, ON",Richmond Hill,1980000,43.886921,-79.449402,House
932,2911,"82 SUN ROW DR Toronto, ON",Richview,908800,43.687252,-79.539108,House
933,2912,"345 INTERNATIONAL LaSalle, ON",Windsor,319900,42.227283,-83.09434499999998,House
934,2913,"246 Parklawn Place Waterloo, ON",Waterloo,419900,43.490466999999995,-80.553566,House
935,2914,"237 Pastern Trail Waterloo, ON",Waterloo,394900,43.490165999999995,-80.486526,House
936,2916,"69 GILBERT AVE Toronto, ON",Earlscourt,599000,43.679153,-79.457504,House
937,2922,"139 Wilson Rd Oshawa, ON",Eastdale,299900,43.90583400000001,-78.845314,House
938,2925,"7 RESTEVER GATE Toronto, ON",Rexdale,609900,43.727604,-79.564903,House
939,2927,"135 CEDRIC AVE Toronto, ON",Midtown Toronto,1179000,43.687832,-79.436775,House
940,2930,"#813 - 3 Rean Dr Toronto, ON",Bayview Village,312900,43.765289,-79.382339,Condo/Apartment
941,2931,"#1722 - 230 Queens Quay Toronto, ON",Downtown,389900,43.639381,-79.384064,Condo/Apartment
942,2933,"539 Golfview Court Oakville, ON",Oakville,1798800,43.452374,-79.724609,House
943,2934,"1081 FOLEY AVENUE Ottawa, ON",Elmvale - Eastway - Riverview - Riverview Park West,379000,45.390419,-75.61891899999998,House
944,2935,"173 GUIGUES AVENUE Ottawa, ON",Byward Market - Parliament Hill,355000,45.432209,-75.692116,House
945,2936,"124 BREEZEHILL AVENUE Ottawa, ON",Ottawa,629900,45.404568,-75.718109,House
946,2937,"1380 PRINCE OF WALES DRIVE UNIT#1605 Ottawa, ON",Carleton Heights - Rideauview,185000,45.369625,-75.703011,Condo/Apartment
947,2938,"6075 VOYAGEUR DRIVE Ottawa, ON",Orléans,424900,45.474716,-75.557007,House
948,2939,"385 OAKLAWN CRESCENT Ottawa, ON",Orléans,339900,45.465637,-75.488403,House
949,2940,"2020 JASMINE CRESCENT UNIT#1402 Ottawa, ON",Beacon Hill South - Cardinal Heights,145000,45.439869,-75.59365799999998,Condo/Apartment
950,2941,"3256 RIVER ROAD Ottawa, ON",Manotick,498000,45.132607,-75.632965,House
951,2942,"10 ROCK FOREST ROAD Ottawa, ON",Dunrobin,150000,45.483821999999996,-76.03981,House
952,2943,"325 FRONTENAC AVENUE Ottawa, ON",Vanier,259000,45.434868,-75.65583000000002,House
953,2944,"370 ANTIGONISH AVENUE Ottawa, ON",Orléans,499000,45.48616,-75.47402199999998,House
954,2945,"436 STALWART CRESCENT Ottawa, ON",Greenbelt,379900,45.324295,-75.598969,House
955,2946,"155 TARTAN DRIVE Ottawa, ON",Barrhaven West - Old Barrhaven,289900,45.264072,-75.763573,House
956,2948,"1870 ROSEBELLA AVENUE Ottawa, ON",Blossom Park - Blossom Park West - Sawmill Creek/ Timbermill,649000,45.351925,-75.618378,House
957,2949,"35 SOUTHLAND CRESCENT Ottawa, ON",Hunt Club,489000,45.371628,-75.619003,House
958,2950,"511 PAUL METIVIER DRIVE Ottawa, ON",New Barrhaven,374900,45.269489,-75.721519,House
959,2951,"1546 BEAVERPOND DRIVE UNIT#104 Ottawa, ON",Pineview,186900,45.42302700000001,-75.598518,Condo/Apartment
960,2952,"262 LAVERGNE STREET Ottawa, ON",Vanier,325000,45.441925,-75.6605,House
961,2953,"44 EAGLEVIEW STREET Kanata, ON",Kanata,274900,45.278862,-75.853737,House
962,2954,"310 HOYLAKE CRESCENT Orleans, ON",Orléans,389900,45.468841999999995,-75.503159,House
963,2955,"1791 MAPLE GROVE ROAD Kanata, ON",Stittsville,265000,45.288253999999995,-75.921722,House
964,2956,"852 MONTCREST DRIVE Orleans, ON",Orléans,489900,45.485195000000004,-75.479668,House
965,2957,"41 COURTNEY ROAD Kanata, ON",Kanata,329900,45.291538,-75.87384,House
966,2958,"730 BOWERCREST CRESCENT Gloucester, ON",Ottawa,349000,45.281384,-75.677872,House
967,2959,"1819 RUSSLAND ROAD Vars, ON",Navan - Vars,699000,45.340396999999996,-75.34185,House
968,2960,"1819 -1831 RUSSLAND ROAD Vars, ON",Navan - Vars,999000,45.339890000000004,-75.341583,House
969,2961,"1819 RUSSLAND ROAD Vars, ON",Navan - Vars,379000,45.340396999999996,-75.34185,House
970,2962,"386 MOCKINGBIRD DRIVE Orleans, ON",Orléans,357900,45.487491999999996,-75.50518000000002,House
971,2964,"1803 ST JOSEPH BOULEVARD UNIT#116 Ottawa, ON",Orléans,159000,45.462092999999996,-75.54791999999998,Condo/Apartment
972,2965,"526 EDWARDS STREET Ottawa, ON",Rockland,265000,45.549442,-75.293739,House
973,2966,"40 NEPEAN STREET UNIT#2306 Ottawa, ON",Ottawa,369000,45.419292,-75.693321,Condo/Apartment
974,2967,"359 QUARTZ AVENUE Ottawa, ON",Rockland,314900,45.544655,-75.280304,House
975,2968,"429 DIVISION STREET Ottawa, ON",Arnprior,1400000,45.430015999999995,-76.38217900000002,House
976,2969,"201 ROLLING MEADOW CRESCENT Ottawa, ON",Orléans,329000,45.427853000000006,-75.516747,House
977,2970,"LOT 15 HWY 7 ROAD Ottawa, ON",Dunrobin,99000,45.493942,-76.196617,House
978,2973,"4754 EAGLE CR Windsor, ON",Roseland,289900,42.239552,-82.985321,House
979,2974,"1670 ALBERT Windsor, ON",East Windsor,109900,42.308056,-82.993439,House
980,2975,"1087 IVANHILL Windsor, ON",East Riverside,334900,42.32914,-82.915306,House
981,2976,"116 CHRISTY LANE Tecumseh, ON",Windsor,884900,42.323807,-82.863449,House
982,2977,"6588 RALEIGH BL London, ON",Talbot,385900,42.935291,-81.306831,House
983,2978,"102 MEG DR London, ON",Westminster,850000,42.921112,-81.23039200000002,House
984,2979,"37 - 410 AMBLESIDE Drive London, ON",Masonville,1650,43.020145,-81.300865,House
985,2980,"579 JEFFREYBROOK Drive London, ON",Uplands,429900,43.035526000000004,-81.261818,House
986,2981,"7001 Whitman Avenue Niagara Falls, ON",Niagara Falls,239000,43.073814,-79.102875,House
987,2982,"25 5490 PRINCE EDWARD Avenue Niagara Falls, ON",Niagara Falls,317500,43.094559000000004,-79.106125,House
988,2983,"203 4872 VALLEY WAY . Niagara Falls, ON",Niagara Falls,109900,43.103577,-79.074303,House
989,2984,"7785 Mulhern Street Niagara Falls, ON",Niagara Falls,199999,43.105556,-79.127815,House
990,2985,"5828 Ferry Street Niagara Falls, ON",Niagara Falls,499000,43.08932100000001,-79.091484,House
991,2986,"6566 DOREEN Drive Niagara Falls, ON",Niagara Falls,269900,43.106136,-79.105293,House
992,2987,"645 Violet Street Waterloo, ON",Waterloo,399900,43.469291999999996,-80.599823,House
993,2988,"335 Northlake Drive Waterloo, ON",Waterloo,159000,43.501736,-80.554558,House
994,2989,"30 375 KINGSCOURT Drive Waterloo, ON",Waterloo,290000,43.496464,-80.52253,House
995,2990,"25 Liberty Avenue Kitchener, ON",Auditorium,335000,43.449638,-80.469513,House
996,2991,"81 Morgan Avenue Kitchener, ON",Centreville Chicopee,249900,43.429859,-80.431648,House
997,2992,"267 Morrison Road Kitchener, ON",Centreville Chicopee,379900,43.430744,-80.416313,House
998,2994,"15 Blucher Street Kitchener, ON",Mount Hope Huron Park,289900,43.460251,-80.499298,House
999,2995,"754 Bleams Road Kitchener, ON",Kitchener,194900,43.407032,-80.474335,House
1000,2996,"7 Upper Mercer Drive Kitchener, ON",Grand River South,319900,43.446490999999995,-80.406723,House
1001,2997,"54 Milson Cres Guelph, ON",Kortright Hills,535000,43.500637,-80.229118,House
1002,2998,"45 Geddes Crescent Guelph, ON",Guelph,649900,43.513851,-80.209908,House
1003,2999,"8 MALVERN Crescent Guelph, ON",Guelph,559900,43.515121,-80.195892,House
1004,3000,"177 Milson Drive Guelph, ON",Kortright Hills,624999,43.498695,-80.22983599999998,House
1005,3001,"15 WILKIE CRES Guelph, ON",Guelph,525000,43.507942,-80.180771,House
1006,3002,"459 Charlton Ave Hamilton, ON",Kirkendall North,298000,43.254723,-79.89370699999998,House
1007,3003,"50 GREEN MOUNTAIN RD Hamilton, ON",Stoney Creek,8050000,43.198563,-79.763313,House
1008,3004,"120 WOODBURN Road Glanbrook, ON",UNDEFINED,329900,-999.0,-999.0,House
1009,3005,"30 FOXMEADOW Drive Stoney Creek, ON",Stoney Creek,429900,43.177826,-79.78106700000002,House
1010,3006,"2432 Baxter Cres Burlington, ON",Burlington,748800,43.385357,-79.827148,House
1011,3007,"104 E - 216 PLAINS Road West Burlington, ON",Aldershot,365000,43.301445,-79.859093,House
1012,3008,"1442 Cobbler Lane Oakville, ON",Glen Abbey,728800,43.430690999999996,-79.744545,House
1013,3009,"1377 ACTON Crescent Oakville, ON",Oakville,1350000,43.473746999999996,-79.66056800000001,House
1014,3010,"2378 Brookhurst Dr Mississauga, ON",Mississauga,525000,43.50983,-79.64267,House
1015,3011,"5655 River Grove Ave Mississauga, ON",East Credit,879900,43.587467,-79.70573399999998,House
1016,3012,"4580 Inverness Blvd Mississauga, ON",East Credit,999600,43.572617,-79.687866,House
1017,3013,"#117 - 6540 Falconer Dr Mississauga, ON",Streetsville,339900,43.604027,-79.73107900000002,Condo/Apartment
1018,3014,"1136 Baldwin Rd Mississauga, ON",Lakeview,699000,43.595562,-79.580551,House
1019,3015,"#1201 - 530 LOLITA GDNS Mississauga, ON",Mississauga,269900,43.592449,-79.605553,Condo/Apartment
1020,3016,"2888 SAINT MALO Circle Mississauga, ON",Mississauga,659900,43.586689,-79.765297,House
1021,3017,"1142 LOWER VILLAGE CRES Mississauga, ON",Lakeview,499900,43.573025,-79.56959499999998,House
1022,3018,"2785 CATHIAN CRT Mississauga, ON",Erin Mills,719900,43.541542,-79.69573199999998,House
1023,3019,"1051 OLD DERRY RD Mississauga, ON",Meadowvale Village,1300000,43.625961,-79.72919499999998,House
1024,3020,"882 Renaissance Dr Oshawa, ON",Lakeview,389900,43.857136,-78.859825,House
1025,3021,"553 Camelot Dr Oshawa, ON",Eastdale,329900,43.917343,-78.847054,House
1026,3022,"600 Whistler Dr Oshawa, ON",Northglen,559900,43.908775,-78.905251,House
